institution,code,name,department,province,district,category,longitude,latitude,business_hours,address,phone,department_code,province_code,district_code
GOBIERNO REGIONAL,9,SAN ANTONIO DE IQUITOS,LORETO,MAYNAS,IQUITOS,I-3,-73.37176,-3.77439,07:00 AM – 07:00 PM,Dirección del EESS,935397852,01,01,01
GOBIERNO REGIONAL,16,BELLAVISTA NANAY,LORETO,MAYNAS,PUNCHANA,I-4,-73.3468,-3.4753,07:00 AM – 07:00 PM,Dirección del EESS,935397853,02,02,02
GOBIERNO REGIONAL,23,C.S. I-3 9 DE OCTUBRE,LORETO,MAYNAS,BELEN,I-3,-73.24459961,-3.76457022,07:00 AM – 07:00 PM,Dirección del EESS,935397854,03,03,03
GOBIERNO REGIONAL,25,SAN JUAN DE MIRAFLORES,LORETO,MAYNAS,SAN JUAN BAUTISTA,I-4,-73.28655,-3.77442,07:00 AM – 07:00 PM,Dirección del EESS,935397855,04,04,04
GOBIERNO REGIONAL,27,AMERICA DE SAN JUAN BAUTISTA,LORETO,MAYNAS,SAN JUAN BAUTISTA,I-3,-73.29931008,-3.78788195,07:00 AM – 07:00 PM,Dirección del EESS,935397856,05,05,05
GOBIERNO REGIONAL,29,SANTA CLARA DE NANAY,LORETO,MAYNAS,SAN JUAN BAUTISTA,I-3,-73.33914568,-3.78567154,07:00 AM – 07:00 PM,Dirección del EESS,935397857,06,06,06
GOBIERNO REGIONAL,37,TAMSHIYACU,LORETO,MAYNAS,FERNANDO LORES,I-3,-73.157948,-4.003332,07:00 AM – 07:00 PM,Dirección del EESS,935397858,07,07,07
GOBIERNO REGIONAL,51,6 DE OCTUBRE,LORETO,MAYNAS,BELEN,I-3,-73.24459961,-3.76457022,07:00 AM – 07:00 PM,Dirección del EESS,935397859,08,08,08
GOBIERNO REGIONAL,53,ANGAMOS,LORETO,REQUENA,YAQUERANA,I-3,-72.87507715,-5.14818528,07:00 AM – 07:00 PM,Dirección del EESS,935397860,09,09,09
GOBIERNO REGIONAL,54,INDIANA,LORETO,MAYNAS,INDIANA,I-3,-73.03855748,-3.49955556,07:00 AM – 07:00 PM,Dirección del EESS,935397861,10,10,10
GOBIERNO REGIONAL,60,FRANCISCO DE ORELLANA,LORETO,MAYNAS,LAS AMAZONAS,I-3,-72.76548514,-3.4216635,07:00 AM – 07:00 PM,Dirección del EESS,935397862,11,11,11
GOBIERNO REGIONAL,63,YANASHI,LORETO,MAYNAS,LAS AMAZONAS,I-3,-72.25568419,-3.58767345,07:00 AM – 07:00 PM,Dirección del EESS,935397863,12,12,12
GOBIERNO REGIONAL,64,IPRESS I-3 MAZAN,LORETO,MAYNAS,MAZAN,I-3,-73.09167713,-3.49795605,07:00 AM – 07:00 PM,Dirección del EESS,935397864,13,13,13
GOBIERNO REGIONAL,66,HOSPITAL II-1 SANTA CLOTILDE,LORETO,MAYNAS,NAPO,II-1,-73.67675328,-2.48939688,07:00 AM – 07:00 PM,Dirección del EESS,935397865,14,14,14
GOBIERNO REGIONAL,67,P.S. I-1 NUEVA LIBERTAD O TUTAPISHCO,LORETO,MAYNAS,NAPO,I-1,-73.13872479,-3.10986745,07:00 AM – 07:00 PM,Dirección del EESS,935397866,15,15,15
GOBIERNO REGIONAL,68,NEGRO URCO,LORETO,MAYNAS,NAPO,I-1,-73.39085124,-3.02047039,07:00 AM – 07:00 PM,Dirección del EESS,935397867,16,16,16
GOBIERNO REGIONAL,69,TACSHA CURARAY,LORETO,MAYNAS,NAPO,I-1,-73.54074886,-2.81318551,07:00 AM – 07:00 PM,Dirección del EESS,935397868,17,17,17
GOBIERNO REGIONAL,70,CAMPO SERIO,LORETO,MAYNAS,TORRES CAUSANA,I-1,-74.70617865,-1.79398104,07:00 AM – 07:00 PM,Dirección del EESS,935397869,18,18,18
GOBIERNO REGIONAL,71,ANGOTEROS,LORETO,MAYNAS,TORRES CAUSANA,I-2,-74.61051508,-1.56863131,07:00 AM – 07:00 PM,Dirección del EESS,935397870,19,19,19
GOBIERNO REGIONAL,72,TEMPESTAD,LORETO,MAYNAS,TORRES CAUSANA,I-1,-74.88385358,-1.28226111,07:00 AM – 07:00 PM,Dirección del EESS,935397871,20,20,20
GOBIERNO REGIONAL,74,P.S. I-2 MCABO PANTOJA DE TORRES CAUSANA,LORETO,MAYNAS,TORRES CAUSANA,I-2,-75.17465847,-0.97041934,07:00 AM – 07:00 PM,Dirección del EESS,935397872,21,21,21
GOBIERNO REGIONAL,75,TORRES CAUSANA,LORETO,MAYNAS,TORRES CAUSANA,I-1,-75.00459122,-1.10448905,07:00 AM – 07:00 PM,Dirección del EESS,935397873,22,22,22
GOBIERNO REGIONAL,77,C.S. I-3 EL ESTRECHO,LORETO,PUTUMAYO,PUTUMAYO,I-3,-72.67166532,-2.44966707,07:00 AM – 07:00 PM,Dirección del EESS,935397874,23,23,23
GOBIERNO REGIONAL,91,NAUTA - NUCLEO BASE,LORETO,LORETO,NAUTA,I-4,-73.57614988,-4.50579542,07:00 AM – 07:00 PM,Dirección del EESS,935397875,24,24,24
GOBIERNO REGIONAL,98,SANTA RITA DE CASTILLA,LORETO,LORETO,PARINARI,I-3,-74.38039053,-4.59061924,07:00 AM – 07:00 PM,Dirección del EESS,935397876,25,25,25
GOBIERNO REGIONAL,101,INTUTO,LORETO,LORETO,TIGRE,I-3,-74.783292,-3.49001,07:00 AM – 07:00 PM,Dirección del EESS,935397877,26,26,26
GOBIERNO REGIONAL,105,VILLA TROMPETEROS,LORETO,LORETO,TROMPETEROS,I-4,-75.060695,-3.806327,07:00 AM – 07:00 PM,Dirección del EESS,935397878,27,27,27
GOBIERNO REGIONAL,109,MAYPUCO,LORETO,LORETO,URARINAS,I-3,-75.12029996,-4.82842962,07:00 AM – 07:00 PM,Dirección del EESS,935397879,28,28,28
GOBIERNO REGIONAL,113,PEVAS,LORETO,MARISCAL RAMON CASTILLA,PEBAS,I-3,-71.86058167,-3.31967333,07:00 AM – 07:00 PM,Dirección del EESS,935397880,29,29,29
GOBIERNO REGIONAL,118,CABALLOCOCHA,LORETO,MARISCAL RAMON CASTILLA,RAMON CASTILLA,I-4,-70.51696667,-3.90842333,07:00 AM – 07:00 PM,Dirección del EESS,935397881,30,30,30
GOBIERNO REGIONAL,123,SAN PABLO,LORETO,MARISCAL RAMON CASTILLA,SAN PABLO,I-3,-71.10453333,-4.01976667,07:00 AM – 07:00 PM,Dirección del EESS,935397882,31,31,31
GOBIERNO REGIONAL,125,ISLANDIA DEL YAVARI,LORETO,MARISCAL RAMON CASTILLA,YAVARI,I-3,-70.04295178,-4.35246203,07:00 AM – 07:00 PM,Dirección del EESS,935397883,32,32,32
GOBIERNO REGIONAL,132,FLOR DE PUNGA,LORETO,REQUENA,CAPELO,I-3,-74.15770233,-5.4046023,07:00 AM – 07:00 PM,Dirección del EESS,935397884,33,33,33
GOBIERNO REGIONAL,136,GENARO HERRERA,LORETO,REQUENA,JENARO HERRERA,I-3,-73.66463391,-4.90499422,07:00 AM – 07:00 PM,Dirección del EESS,935397885,34,34,34
GOBIERNO REGIONAL,137,SAN ROQUE DE MAQUIA,LORETO,REQUENA,MAQUIA,I-3,-74.59743523,-5.83218091,07:00 AM – 07:00 PM,Dirección del EESS,935397886,35,35,35
GOBIERNO REGIONAL,146,CENTRO DE SALUD I-3 BRETAÑA,LORETO,REQUENA,PUINAHUA,I-3,-74.34552947,-5.25607497,07:00 AM – 07:00 PM,Dirección del EESS,935397887,36,36,36
GOBIERNO REGIONAL,150,C.S. I-4 REQUENA,LORETO,REQUENA,REQUENA,I-4,-73.8569342,-5.06288155,07:00 AM – 07:00 PM,Dirección del EESS,935397888,37,37,37
GOBIERNO REGIONAL,161,CENTRO DE SALUD I-3 JUANCITO DE SARAYACU,LORETO,UCAYALI,SARAYACU,I-4,-74.85340813,-6.03194009,07:00 AM – 07:00 PM,Dirección del EESS,935397889,38,38,38
GOBIERNO REGIONAL,162,HOSPITAL II-I  CONTAMANA,LORETO,UCAYALI,CONTAMANA,II-1,-75.00736135,-7.34801882,07:00 AM – 07:00 PM,Dirección del EESS,935397890,39,39,39
GOBIERNO REGIONAL,171,CENTRO DE SALUD I-3 TIRUNTAN,LORETO,UCAYALI,PADRE MARQUEZ,I-3,-74.84089759,-7.94643339,07:00 AM – 07:00 PM,Dirección del EESS,935397891,40,40,40
GOBIERNO REGIONAL,176,CENTRO DE SALUD I-3 PAMPA HERMOZA DE PAMPA HERMOZA,LORETO,UCAYALI,PAMPA HERMOSA,I-3,-75.29771701,-7.2016648,07:00 AM – 07:00 PM,Dirección del EESS,935397892,41,41,41
GOBIERNO REGIONAL,182,CENTRO DE ALUD I-3 TIERRA BLANCA,LORETO,UCAYALI,SARAYACU,I-3,-75.17958948,-6.54976828,07:00 AM – 07:00 PM,Dirección del EESS,935397893,42,42,42
GOBIERNO REGIONAL,185,CENTRO DE SALUD I-3 ORELLANA,LORETO,UCAYALI,VARGAS GUERRA,I-4,-75.15865947,-6.91476797,07:00 AM – 07:00 PM,Dirección del EESS,935397894,43,43,43
GOBIERNO REGIONAL,186,C.S. I-3 SAN GABRIEL DE VARADERO,LORETO,ALTO AMAZONAS,BALSAPUERTO,I-3,-73.90534481,-4.5125192,07:00 AM – 07:00 PM,Dirección del EESS,935397895,44,44,44
GOBIERNO REGIONAL,187,C.S.  I-4 BALSAPUERTO,LORETO,ALTO AMAZONAS,BALSAPUERTO,I-4,-76.55968496,-5.8348331,07:00 AM – 07:00 PM,Dirección del EESS,935397896,45,45,45
GOBIERNO REGIONAL,191,C.S. I-3 JEBEROS,LORETO,ALTO AMAZONAS,JEBEROS,I-3,-76.28408123,-5.29104902,07:00 AM – 07:00 PM,Dirección del EESS,935397897,46,46,46
GOBIERNO REGIONAL,193,C.S. I-4 LAGUNAS,LORETO,ALTO AMAZONAS,LAGUNAS,I-4,-75.67552385,-5.22445921,07:00 AM – 07:00 PM,Dirección del EESS,935397898,47,47,47
GOBIERNO REGIONAL,202,C.S. I-3 SANTA CRUZ,LORETO,ALTO AMAZONAS,SANTA CRUZ,I-3,-75.8606824,-5.51222726,07:00 AM – 07:00 PM,Dirección del EESS,935397899,48,48,48
GOBIERNO REGIONAL,209,C.S. I-3 SHUCUSHYACU,LORETO,ALTO AMAZONAS,TENIENTE CESAR LOPEZ ROJAS,I-3,-75.87608065,-6.01626018,07:00 AM – 07:00 PM,Dirección del EESS,935397900,49,49,49
GOBIERNO REGIONAL,210,HOSPITAL SANTA GEMA DE  YURIMAGUAS,LORETO,ALTO AMAZONAS,YURIMAGUAS,II-1,-76.10645167,-5.89353,07:00 AM – 07:00 PM,Dirección del EESS,935397901,50,50,50
GOBIERNO REGIONAL,212,C.S. I-4 PAMPA HERMOZA DE YURIMAGUAS,LORETO,ALTO AMAZONAS,YURIMAGUAS,I-4,-76.26957,-6.10275,07:00 AM – 07:00 PM,Dirección del EESS,935397902,51,51,51
GOBIERNO REGIONAL,214,C.S. I-3 SANTA MARÍA,LORETO,ALTO AMAZONAS,YURIMAGUAS,I-3,-76.11411,-5.77113,07:00 AM – 07:00 PM,Dirección del EESS,935397903,52,52,52
GOBIERNO REGIONAL,222,C.S. I-3 MUNICHIS DE YURIMAGUAS,LORETO,ALTO AMAZONAS,YURIMAGUAS,I-3,-76.2308,-5.8925,07:00 AM – 07:00 PM,Dirección del EESS,935397904,53,53,53
GOBIERNO REGIONAL,232,C.S. I-3 GRAU KM.40,LORETO,ALTO AMAZONAS,YURIMAGUAS,I-3,-76.24155,-6.0727,07:00 AM – 07:00 PM,Dirección del EESS,935397905,54,54,54
GOBIERNO REGIONAL,235,C.S. I-4 SAN LORENZO,LORETO,DATEM DEL MARAÑON,BARRANCA,I-4,-76.56119833,-4.82733167,07:00 AM – 07:00 PM,Dirección del EESS,935397906,55,55,55
GOBIERNO REGIONAL,246,C.S. I-3 SARAMIRIZA,LORETO,DATEM DEL MARAÑON,MANSERICHE,I-3,-77.42026667,-4.56787667,07:00 AM – 07:00 PM,Dirección del EESS,935397907,56,56,56
GOBIERNO REGIONAL,258,NUEVO ANDOAS,LORETO,DATEM DEL MARAÑON,ANDOAS,I-4,-76.46119667,-2.80377333,07:00 AM – 07:00 PM,Dirección del EESS,935397908,57,57,57
GOBIERNO REGIONAL,268,C.S. I-3 ULLPAYACU,LORETO,DATEM DEL MARAÑON,PASTAZA,I-3,-76.58828333,-4.65086,07:00 AM – 07:00 PM,Dirección del EESS,935397909,58,58,58
GOBIERNO REGIONAL,275,ACLAS BELEN DE VILLA BELEN,LORETO,MAYNAS,BELEN,I-3,-73.24462,-3.76456,07:00 AM – 07:00 PM,Dirección del EESS,935397910,59,59,59
GOBIERNO REGIONAL,280,MANGUA DEL MAZAN,LORETO,MAYNAS,MAZAN,I-1,-72.77567216,-3.31988154,07:00 AM – 07:00 PM,Dirección del EESS,935397911,60,60,60
GOBIERNO REGIONAL,284,RUMI TUMI,LORETO,MAYNAS,NAPO,I-1,-74.43656951,-2.05350304,07:00 AM – 07:00 PM,Dirección del EESS,935397912,61,61,61
GOBIERNO REGIONAL,285,P.S. I-1 SAN RAFAEL,LORETO,MAYNAS,NAPO,I-1,-74.11151048,-2.3637788,07:00 AM – 07:00 PM,Dirección del EESS,935397913,62,62,62
GOBIERNO REGIONAL,288,SAN JOSE DE SARAMURO,LORETO,LORETO,URARINAS,I-2,-74.9290061,-4.71467454,07:00 AM – 07:00 PM,Dirección del EESS,935397914,63,63,63
GOBIERNO REGIONAL,291,SANTA ROSA DE RAMON CASTILLA,LORETO,MARISCAL RAMON CASTILLA,YAVARI,I-3,-69.95587232,-4.22660218,07:00 AM – 07:00 PM,Dirección del EESS,935397915,64,64,64
GOBIERNO REGIONAL,308,HOSPITAL REGIONAL DOCENTE DE MEDICINA TROPICAL DR. JULIO CESAR DEMARINI CARO,JUNIN,CHANCHAMAYO,CHANCHAMAYO,II-2,-75.33759,-11.07388333,07:00 AM – 07:00 PM,Dirección del EESS,935397916,65,65,65
GOBIERNO REGIONAL,314,SAN LUIS DE SHUARO,JUNIN,CHANCHAMAYO,SAN LUIS DE SHUARO,I-3,-75.288345,-10.88827,07:00 AM – 07:00 PM,Dirección del EESS,935397917,66,66,66
GOBIERNO REGIONAL,318,VILLA PERENE,JUNIN,CHANCHAMAYO,PERENE,I-4,-75.22715,-10.946735,07:00 AM – 07:00 PM,Dirección del EESS,935397918,67,67,67
GOBIERNO REGIONAL,320,PUERTO YURINAKI,JUNIN,CHANCHAMAYO,PERENE,I-3,-75.08276,-10.86827833,07:00 AM – 07:00 PM,Dirección del EESS,935397919,68,68,68
GOBIERNO REGIONAL,330,SAN FERNANDO DE KIVINAKI,JUNIN,CHANCHAMAYO,PERENE,I-3,-74.94644,-10.88015,07:00 AM – 07:00 PM,Dirección del EESS,935397920,69,69,69
GOBIERNO REGIONAL,340,HOSPITAL DE APOYO PICHANAKI,JUNIN,CHANCHAMAYO,PICHANAQUI,II-1,-74.87183837,-10.92571391,07:00 AM – 07:00 PM,Dirección del EESS,935397921,70,70,70
GOBIERNO REGIONAL,343,CENTRO CUYANI,JUNIN,CHANCHAMAYO,PICHANAQUI,I-3,-74.93988905,-10.99203258,07:00 AM – 07:00 PM,Dirección del EESS,935397922,71,71,71
GOBIERNO REGIONAL,344,LAS PALMAS,JUNIN,CHANCHAMAYO,PICHANAQUI,I-3,-74.75391229,-11.04073684,07:00 AM – 07:00 PM,Dirección del EESS,935397923,72,72,72
GOBIERNO REGIONAL,351,HUACHIRIKI,JUNIN,CHANCHAMAYO,PICHANAQUI,I-3,-74.82649965,-10.90186898,07:00 AM – 07:00 PM,Dirección del EESS,935397924,73,73,73
GOBIERNO REGIONAL,354,SAN RAMON,JUNIN,CHANCHAMAYO,SAN RAMON,I-4,-75.35392222,-11.1193113,07:00 AM – 07:00 PM,Dirección del EESS,935397925,74,74,74
GOBIERNO REGIONAL,365,HOSPITAL DOMINGO OLAVEGOYA,JUNIN,JAUJA,JAUJA,II-1,-75.4968676,-11.77722745,07:00 AM – 07:00 PM,Dirección del EESS,935397926,75,75,75
GOBIERNO REGIONAL,377,YAUYOS,JUNIN,JAUJA,YAUYOS,I-3,-75.49974833,-11.780745,07:00 AM – 07:00 PM,Dirección del EESS,935397927,76,76,76
GOBIERNO REGIONAL,379,ACOLLA,JUNIN,JAUJA,ACOLLA,I-3,-75.54313271,-11.73497566,07:00 AM – 07:00 PM,Dirección del EESS,935397928,77,77,77
GOBIERNO REGIONAL,394,MASMA,JUNIN,JAUJA,MASMA,I-3,-75.42607538,-11.78696708,07:00 AM – 07:00 PM,Dirección del EESS,935397929,78,78,78
GOBIERNO REGIONAL,404,SINCOS,JUNIN,JAUJA,SINCOS,I-3,-75.39420667,-11.88702167,07:00 AM – 07:00 PM,Dirección del EESS,935397930,79,79,79
GOBIERNO REGIONAL,406,ARAMACHAY,JUNIN,JAUJA,SINCOS,I-2,-75.41417333,-11.91626167,07:00 AM – 07:00 PM,Dirección del EESS,935397931,80,80,80
GOBIERNO REGIONAL,409,APATA,JUNIN,JAUJA,APATA,I-3,-75.35867401,-11.85450789,07:00 AM – 07:00 PM,Dirección del EESS,935397932,81,81,81
GOBIERNO REGIONAL,427,LLOCLLAPAMPA,JUNIN,JAUJA,LLOCLLAPAMPA,I-3,-75.61966996,-11.81648113,07:00 AM – 07:00 PM,Dirección del EESS,935397933,82,82,82
GOBIERNO REGIONAL,432,DE APOYO MANUEL HIGA ARAKAKI,JUNIN,SATIPO,SATIPO,II-1,-74.6386,-11.24928,07:00 AM – 07:00 PM,Dirección del EESS,935397934,83,83,83
GOBIERNO REGIONAL,434,MAZAMARI,JUNIN,SATIPO,MAZAMARI,I-4,-74.52919206,-11.32432961,07:00 AM – 07:00 PM,Dirección del EESS,935397935,84,84,84
GOBIERNO REGIONAL,438,TZIRIARI,JUNIN,SATIPO,PANGOA,I-3,-74.43207523,-11.29066764,07:00 AM – 07:00 PM,Dirección del EESS,935397936,85,85,85
GOBIERNO REGIONAL,442,SAN MARTIN DE PANGOA,JUNIN,SATIPO,PANGOA,II-1,-74.49077226,-11.42780367,07:00 AM – 07:00 PM,Dirección del EESS,935397937,86,86,86
GOBIERNO REGIONAL,443,SAN RAMON DE PANGOA,JUNIN,SATIPO,PANGOA,I-3,-74.48193093,-11.43036274,07:00 AM – 07:00 PM,Dirección del EESS,935397938,87,87,87
GOBIERNO REGIONAL,445,SAN ANTONIO DE SONOMORO,JUNIN,SATIPO,PANGOA,I-3,-74.43860448,-11.44696475,07:00 AM – 07:00 PM,Dirección del EESS,935397939,88,88,88
GOBIERNO REGIONAL,446,CUBANTIA,JUNIN,SATIPO,PANGOA,I-2,-74.4082305,-11.57839954,07:00 AM – 07:00 PM,Dirección del EESS,935397940,89,89,89
GOBIERNO REGIONAL,460,BETANIA,JUNIN,SATIPO,RIO TAMBO,I-3,-73.75060284,-11.05198391,07:00 AM – 07:00 PM,Dirección del EESS,935397941,90,90,90
GOBIERNO REGIONAL,462,POYENI,JUNIN,SATIPO,RIO TAMBO,I-3,-73.66857105,-11.25795462,07:00 AM – 07:00 PM,Dirección del EESS,935397942,91,91,91
GOBIERNO REGIONAL,469,PUERTO OCOPA,JUNIN,SATIPO,RIO TAMBO,I-3,-74.30734969,-11.14687109,07:00 AM – 07:00 PM,Dirección del EESS,935397943,92,92,92
GOBIERNO REGIONAL,473,SAN VICENTE DE CANAAN,JUNIN,SATIPO,RIO TAMBO,I-3,-74.26644211,-11.08282082,07:00 AM – 07:00 PM,Dirección del EESS,935397944,93,93,93
GOBIERNO REGIONAL,485,COVIRIALI,JUNIN,SATIPO,COVIRIALI,I-3,-74.62767412,-11.2906802,07:00 AM – 07:00 PM,Dirección del EESS,935397945,94,94,94
GOBIERNO REGIONAL,490,LLAYLLA,JUNIN,SATIPO,LLAYLLA,I-3,-74.58957123,-11.38057094,07:00 AM – 07:00 PM,Dirección del EESS,935397946,95,95,95
GOBIERNO REGIONAL,495,RIO NEGRO,JUNIN,SATIPO,RIO NEGRO,I-3,-74.65857274,-11.20902393,07:00 AM – 07:00 PM,Dirección del EESS,935397947,96,96,96
GOBIERNO REGIONAL,517,VALLE ESMERALDA,JUNIN,SATIPO,RIO TAMBO,I-3,-74.07993581,-12.12959068,07:00 AM – 07:00 PM,Dirección del EESS,935397948,97,97,97
GOBIERNO REGIONAL,519,DE APOYO JUNIN,JUNIN,JUNIN,JUNIN,II-1,-75.99831121,-11.15840599,07:00 AM – 07:00 PM,Dirección del EESS,935397949,98,98,98
GOBIERNO REGIONAL,520,DE APOYO FELIX MAYORCA SOTO,JUNIN,TARMA,TARMA,II-2,-75.69261968,-11.42508388,07:00 AM – 07:00 PM,Dirección del EESS,935397950,99,99,99
GOBIERNO REGIONAL,521,ACOBAMBA,JUNIN,TARMA,ACOBAMBA,I-4,-75.66359818,-11.35409117,07:00 AM – 07:00 PM,Dirección del EESS,935397951,100,100,100
GOBIERNO REGIONAL,527,C.S. PALCAMAYO,JUNIN,TARMA,PALCAMAYO,I-3,-75.77033401,-11.29741073,07:00 AM – 07:00 PM,Dirección del EESS,935397952,101,101,101
GOBIERNO REGIONAL,534,SAN PEDRO DE CAJAS,JUNIN,TARMA,SAN PEDRO DE CAJAS,I-3,-75.86061716,-11.24741971,07:00 AM – 07:00 PM,Dirección del EESS,935397953,102,102,102
GOBIERNO REGIONAL,537,CARHUAMAYO,JUNIN,JUNIN,CARHUAMAYO,I-3,-76.06391667,-10.92531,07:00 AM – 07:00 PM,Dirección del EESS,935397954,103,103,103
GOBIERNO REGIONAL,542,HUASAHUASI,JUNIN,TARMA,HUASAHUASI,I-4,-75.64738585,-11.26602291,07:00 AM – 07:00 PM,Dirección del EESS,935397955,104,104,104
GOBIERNO REGIONAL,551,ONDORES,JUNIN,JUNIN,ONDORES,I-3,-76.14909561,-11.09163242,07:00 AM – 07:00 PM,Dirección del EESS,935397956,105,105,105
GOBIERNO REGIONAL,559,LA OROYA,JUNIN,YAULI,LA OROYA,I-4,-75.90646915,-11.52207533,07:00 AM – 07:00 PM,Dirección del EESS,935397957,106,106,106
GOBIERNO REGIONAL,563,MOROCOCHA,JUNIN,YAULI,MOROCOCHA,I-3,-76.06266939,-11.58751507,07:00 AM – 07:00 PM,Dirección del EESS,935397958,107,107,107
GOBIERNO REGIONAL,566,SANTA ROSA DE SACCO,JUNIN,YAULI,SANTA ROSA DE SACCO,I-3,-75.94348941,-11.55157263,07:00 AM – 07:00 PM,Dirección del EESS,935397959,108,108,108
GOBIERNO REGIONAL,569,PALCA,JUNIN,TARMA,PALCA,I-3,-75.57127679,-11.34601943,07:00 AM – 07:00 PM,Dirección del EESS,935397960,109,109,109
GOBIERNO REGIONAL,601,ULCUMAYO,JUNIN,JUNIN,ULCUMAYO,I-3,-75.88265167,-10.96752333,07:00 AM – 07:00 PM,Dirección del EESS,935397961,110,110,110
GOBIERNO REGIONAL,608,CHILCA,JUNIN,HUANCAYO,CHILCA,I-4,-75.20297417,-12.0906394,07:00 AM – 07:00 PM,Dirección del EESS,935397962,111,111,111
GOBIERNO REGIONAL,610,AUQUIMARCA,JUNIN,HUANCAYO,CHILCA,I-3,-75.217569,-12.09301241,07:00 AM – 07:00 PM,Dirección del EESS,935397963,112,112,112
GOBIERNO REGIONAL,620,HUANCAN,JUNIN,HUANCAYO,HUANCAN,I-3,-75.21422322,-12.1062638,07:00 AM – 07:00 PM,Dirección del EESS,935397964,113,113,113
GOBIERNO REGIONAL,622,HUAYUCACHI,JUNIN,HUANCAYO,HUAYUCACHI,I-3,-75.22432523,-12.14005209,07:00 AM – 07:00 PM,Dirección del EESS,935397965,114,114,114
GOBIERNO REGIONAL,624,PUCARA,JUNIN,HUANCAYO,PUCARA,I-3,-75.14352537,-12.17262238,07:00 AM – 07:00 PM,Dirección del EESS,935397966,115,115,115
GOBIERNO REGIONAL,629,SAPALLANGA,JUNIN,HUANCAYO,SAPALLANGA,I-3,-75.15826995,-12.13947696,07:00 AM – 07:00 PM,Dirección del EESS,935397967,116,116,116
GOBIERNO REGIONAL,641,SAN JOSE DE QUERO,JUNIN,CONCEPCION,SAN JOSE DE QUERO,I-3,-75.53677995,-12.08556488,07:00 AM – 07:00 PM,Dirección del EESS,935397968,117,117,117
GOBIERNO REGIONAL,642,CHAQUICOCHA,JUNIN,CONCEPCION,SAN JOSE DE QUERO,I-2,-75.51178176,-12.03564639,07:00 AM – 07:00 PM,Dirección del EESS,935397969,118,118,118
GOBIERNO REGIONAL,646,PEDRO SANCHEZ MEZA - CHUPACA,JUNIN,CHUPACA,CHUPACA,I-4,-75.28830102,-12.06398828,07:00 AM – 07:00 PM,Dirección del EESS,935397970,119,119,119
GOBIERNO REGIONAL,649,CHONGOS BAJO,JUNIN,CHUPACA,CHONGOS BAJO,I-3,-75.27129466,-12.13238974,07:00 AM – 07:00 PM,Dirección del EESS,935397971,120,120,120
GOBIERNO REGIONAL,651,HUACHAC,JUNIN,CHUPACA,HUACHAC,I-3,-75.34340602,-12.02220584,07:00 AM – 07:00 PM,Dirección del EESS,935397972,121,121,121
GOBIERNO REGIONAL,659,SAN JUAN DE JARPA,JUNIN,CHUPACA,SAN JUAN DE JARPA,I-3,-75.43458239,-12.12737999,07:00 AM – 07:00 PM,Dirección del EESS,935397973,122,122,122
GOBIERNO REGIONAL,666,SANTO DOMINGO DE ACOBAMBA,JUNIN,HUANCAYO,SANTO DOMINGO DE ACOBAMBA,I-3,-74.79543614,-11.76832346,07:00 AM – 07:00 PM,Dirección del EESS,935397974,123,123,123
GOBIERNO REGIONAL,671,DAVID GUERRERO DUARTE,JUNIN,CONCEPCION,CONCEPCION,I-4,-75.31124063,-11.92220884,07:00 AM – 07:00 PM,Dirección del EESS,935397975,124,124,124
GOBIERNO REGIONAL,678,COMAS,JUNIN,CONCEPCION,COMAS,I-3,-75.08273286,-11.72268339,07:00 AM – 07:00 PM,Dirección del EESS,935397976,125,125,125
GOBIERNO REGIONAL,687,MATAHUASI,JUNIN,CONCEPCION,MATAHUASI,I-3,-75.34683747,-11.89289675,07:00 AM – 07:00 PM,Dirección del EESS,935397977,126,126,126
GOBIERNO REGIONAL,690,NUEVE DE JULIO,JUNIN,CONCEPCION,NUEVE DE JULIO,I-1,-75.31960212,-11.89467967,07:00 AM – 07:00 PM,Dirección del EESS,935397978,127,127,127
GOBIERNO REGIONAL,691,SANTA ROSA DE OCOPA,JUNIN,CONCEPCION,SANTA ROSA DE OCOPA,I-3,-75.29656868,-11.87886954,07:00 AM – 07:00 PM,Dirección del EESS,935397979,128,128,128
GOBIERNO REGIONAL,700,CHONGOS ALTO,JUNIN,HUANCAYO,CHONGOS ALTO,I-3,-75.29295866,-12.30741534,07:00 AM – 07:00 PM,Dirección del EESS,935397980,129,129,129
GOBIERNO REGIONAL,705,JUSTICIA PAZ Y VIDA,JUNIN,HUANCAYO,EL TAMBO,I-4,-75.23372274,-12.06084184,07:00 AM – 07:00 PM,Dirección del EESS,935397981,130,130,130
GOBIERNO REGIONAL,707,SAN MARTIN,JUNIN,HUANCAYO,EL TAMBO,I-3,-75.21845727,-12.02477331,07:00 AM – 07:00 PM,Dirección del EESS,935397982,131,131,131
GOBIERNO REGIONAL,714,JUAN PARRA DEL RIEGO,JUNIN,HUANCAYO,EL TAMBO,I-3,-75.21516966,-12.04690297,07:00 AM – 07:00 PM,Dirección del EESS,935397983,132,132,132
GOBIERNO REGIONAL,719,PILCOMAYO,JUNIN,HUANCAYO,PILCOMAYO,I-3,-75.25427493,-12.05607954,07:00 AM – 07:00 PM,Dirección del EESS,935397984,133,133,133
GOBIERNO REGIONAL,722,SAN AGUSTIN DE CAJAS,JUNIN,HUANCAYO,SAN AGUSTIN,I-3,-75.24752626,-11.99213661,07:00 AM – 07:00 PM,Dirección del EESS,935397985,134,134,134
GOBIERNO REGIONAL,724,SAN JERONIMO,JUNIN,HUANCAYO,SAN JERONIMO DE TUNAN,I-3,-75.28140938,-11.95203665,07:00 AM – 07:00 PM,Dirección del EESS,935397986,135,135,135
GOBIERNO REGIONAL,726,SICAYA,JUNIN,HUANCAYO,SICAYA,I-3,-75.28153974,-12.0170586,07:00 AM – 07:00 PM,Dirección del EESS,935397987,136,136,136
GOBIERNO REGIONAL,727,LA LIBERTAD,JUNIN,HUANCAYO,HUANCAYO,I-4,-75.20435799,-12.06428378,07:00 AM – 07:00 PM,Dirección del EESS,935397988,137,137,137
GOBIERNO REGIONAL,728,OCOPILLA,JUNIN,HUANCAYO,HUANCAYO,I-3,-75.19633596,-12.06992404,07:00 AM – 07:00 PM,Dirección del EESS,935397989,138,138,138
GOBIERNO REGIONAL,751,ORCOTUNA,JUNIN,CONCEPCION,ORCOTUNA,I-3,-75.30982889,-11.9634512,07:00 AM – 07:00 PM,Dirección del EESS,935397990,139,139,139
GOBIERNO REGIONAL,753,HOSPITAL REGIONAL DOCENTE CLINICO QUIRURGICO DANIEL ALCIDES CARRION DE HUANCAYO,JUNIN,HUANCAYO,HUANCAYO,III-E,-75.221612,-12.073004,07:00 AM – 07:00 PM,Dirección del EESS,935397991,140,140,140
GOBIERNO REGIONAL,754,HOSPITAL REGIONAL HERMILIO VALDIZAN,HUANUCO,HUANUCO,HUANUCO,II-2,-76.236176,-9.927955,07:00 AM – 07:00 PM,Dirección del EESS,935397992,141,141,141
GOBIERNO REGIONAL,755,PERU-COREA,HUANUCO,HUANUCO,AMARILIS,I-4,-76.22713844,-9.91845739,07:00 AM – 07:00 PM,Dirección del EESS,935397993,142,142,142
GOBIERNO REGIONAL,756,CARLOS SHOWING FERRARI,HUANUCO,HUANUCO,AMARILIS,II-E,-76.2420515,-9.94318605,07:00 AM – 07:00 PM,Dirección del EESS,935397994,143,143,143
GOBIERNO REGIONAL,757,POTRACANCHA,HUANUCO,HUANUCO,PILLCO MARCA,I-3,-76.24915061,-9.95841525,07:00 AM – 07:00 PM,Dirección del EESS,935397995,144,144,144
GOBIERNO REGIONAL,759,CAYRAN,HUANUCO,HUANUCO,SAN FRANCISCO DE CAYRAN,I-3,-76.28439167,-9.98085667,07:00 AM – 07:00 PM,Dirección del EESS,935397996,145,145,145
GOBIERNO REGIONAL,765,CHURUBAMBA,HUANUCO,HUANUCO,CHURUBAMBA,I-2,-76.13338426,-9.82561424,07:00 AM – 07:00 PM,Dirección del EESS,935397997,146,146,146
GOBIERNO REGIONAL,772,SAN SEBASTIAN DE QUERA,HUANUCO,HUANUCO,SANTA MARIA DEL VALLE,I-3,-76.27629924,-9.85208003,07:00 AM – 07:00 PM,Dirección del EESS,935397998,147,147,147
GOBIERNO REGIONAL,775,ACOMAYO,HUANUCO,HUANUCO,CHINCHAO,I-3,-76.06979889,-9.80266248,07:00 AM – 07:00 PM,Dirección del EESS,935397999,148,148,148
GOBIERNO REGIONAL,777,PILLAO,HUANUCO,HUANUCO,SAN PABLO DE PILLAO,I-3,-75.99541144,-9.79552539,07:00 AM – 07:00 PM,Dirección del EESS,935398000,149,149,149
GOBIERNO REGIONAL,778,PANAO,HUANUCO,PACHITEA,PANAO,I-3,-75.99533086,-9.89662647,07:00 AM – 07:00 PM,Dirección del EESS,935398001,150,150,150
GOBIERNO REGIONAL,779,CHAGLLA,HUANUCO,PACHITEA,CHAGLLA,I-3,-75.90225326,-9.84151595,07:00 AM – 07:00 PM,Dirección del EESS,935398002,151,151,151
GOBIERNO REGIONAL,782,MOLINOS,HUANUCO,PACHITEA,MOLINO,I-3,-76.01804711,-9.9093868,07:00 AM – 07:00 PM,Dirección del EESS,935398003,152,152,152
GOBIERNO REGIONAL,783,TAMBILLO-UMARI,HUANUCO,PACHITEA,UMARI,I-3,-76.0417201,-9.86567017,07:00 AM – 07:00 PM,Dirección del EESS,935398004,153,153,153
GOBIERNO REGIONAL,784,HUARICHACA,HUANUCO,PACHITEA,MOLINO,I-3,-76.03514472,-9.94443711,07:00 AM – 07:00 PM,Dirección del EESS,935398005,154,154,154
GOBIERNO REGIONAL,785,APARICIO POMARES,HUANUCO,HUANUCO,HUANUCO,I-3,-76.25011678,-9.93234122,07:00 AM – 07:00 PM,Dirección del EESS,935398006,155,155,155
GOBIERNO REGIONAL,787,LAS MORAS,HUANUCO,HUANUCO,HUANUCO,I-3,-76.2382847,-9.9153027,07:00 AM – 07:00 PM,Dirección del EESS,935398007,156,156,156
GOBIERNO REGIONAL,790,HUANCAPALLAC,HUANUCO,HUANUCO,QUISQUI,I-3,-76.38890175,-9.90571942,07:00 AM – 07:00 PM,Dirección del EESS,935398008,157,157,157
GOBIERNO REGIONAL,793,YARUMAYO,HUANUCO,HUANUCO,YARUMAYO,I-3,-76.46884065,-10.00441271,07:00 AM – 07:00 PM,Dirección del EESS,935398009,158,158,158
GOBIERNO REGIONAL,794,CHAULAN,HUANUCO,HUANUCO,SAN PEDRO DE CHAULAN,I-3,-76.48523076,-10.05809053,07:00 AM – 07:00 PM,Dirección del EESS,935398010,159,159,159
GOBIERNO REGIONAL,797,MARGOS,HUANUCO,HUANUCO,MARGOS,I-3,-76.524225,-10.00156167,07:00 AM – 07:00 PM,Dirección del EESS,935398011,160,160,160
GOBIERNO REGIONAL,801,YACUS,HUANUCO,HUANUCO,YACUS,I-3,-76.50508833,-9.98591333,07:00 AM – 07:00 PM,Dirección del EESS,935398012,161,161,161
GOBIERNO REGIONAL,802,C.S. JESUS,HUANUCO,LAURICOCHA,JESUS,I-3,-76.63043667,-10.07761833,07:00 AM – 07:00 PM,Dirección del EESS,935398013,162,162,162
GOBIERNO REGIONAL,808,RONDOS,HUANUCO,LAURICOCHA,RONDOS,I-3,-76.68784167,-9.99122667,07:00 AM – 07:00 PM,Dirección del EESS,935398014,163,163,163
GOBIERNO REGIONAL,809,BAÑOS,HUANUCO,LAURICOCHA,BAÑOS,I-3,-76.73042167,-10.067075,07:00 AM – 07:00 PM,Dirección del EESS,935398015,164,164,164
GOBIERNO REGIONAL,815,AMBO,HUANUCO,AMBO,AMBO,I-3,-76.20662872,-10.12777892,07:00 AM – 07:00 PM,Dirección del EESS,935398016,165,165,165
GOBIERNO REGIONAL,823,HUACAR,HUANUCO,AMBO,HUACAR,I-3,-76.23560287,-10.16225398,07:00 AM – 07:00 PM,Dirección del EESS,935398017,166,166,166
GOBIERNO REGIONAL,831,SAN RAFAEL,HUANUCO,AMBO,SAN RAFAEL,I-3,-76.18315399,-10.33877446,07:00 AM – 07:00 PM,Dirección del EESS,935398018,167,167,167
GOBIERNO REGIONAL,839,LA UNION,HUANUCO,DOS DE MAYO,LA UNION,I-4,-76.800955,-9.82463333,07:00 AM – 07:00 PM,Dirección del EESS,935398019,168,168,168
GOBIERNO REGIONAL,845,PACHAS,HUANUCO,DOS DE MAYO,PACHAS,I-3,-76.77089273,-9.70617423,07:00 AM – 07:00 PM,Dirección del EESS,935398020,169,169,169
GOBIERNO REGIONAL,849,MARIAS,HUANUCO,DOS DE MAYO,MARIAS,I-3,-76.70673511,-9.607069,07:00 AM – 07:00 PM,Dirección del EESS,935398021,170,170,170
GOBIERNO REGIONAL,855,CHAVINILLO,HUANUCO,YAROWILCA,CHAVINILLO,I-3,-76.61101413,-9.86145291,07:00 AM – 07:00 PM,Dirección del EESS,935398022,171,171,171
GOBIERNO REGIONAL,862,OBAS,HUANUCO,YAROWILCA,OBAS,I-3,-76.66505333,-9.79534833,07:00 AM – 07:00 PM,Dirección del EESS,935398023,172,172,172
GOBIERNO REGIONAL,863,CHUPAN,HUANUCO,YAROWILCA,APARICIO POMARES,I-3,-76.64836333,-9.74379,07:00 AM – 07:00 PM,Dirección del EESS,935398024,173,173,173
GOBIERNO REGIONAL,866,HUACRACHUCO,HUANUCO,MARAÑON,HUACRACHUCO,I-3,-77.149775,-8.60394167,07:00 AM – 07:00 PM,Dirección del EESS,935398025,174,174,174
GOBIERNO REGIONAL,877,HUACAYBAMBA,HUANUCO,HUACAYBAMBA,HUACAYBAMBA,I-3,-76.95746658,-9.03602288,07:00 AM – 07:00 PM,Dirección del EESS,935398026,175,175,175
GOBIERNO REGIONAL,878,CANCHABAMBA,HUANUCO,HUACAYBAMBA,CANCHABAMBA,I-3,-77.12443643,-8.88624121,07:00 AM – 07:00 PM,Dirección del EESS,935398027,176,176,176
GOBIERNO REGIONAL,883,PINRA,HUANUCO,HUACAYBAMBA,PINRA,I-2,-77.01698433,-8.92467948,07:00 AM – 07:00 PM,Dirección del EESS,935398028,177,177,177
GOBIERNO REGIONAL,885,HUARACILLO,HUANUCO,HUACAYBAMBA,PINRA,I-2,-77.08856351,-8.93550642,07:00 AM – 07:00 PM,Dirección del EESS,935398029,178,178,178
GOBIERNO REGIONAL,886,VILLA FLORES DE RAJIN,HUANUCO,HUACAYBAMBA,CANCHABAMBA,I-1,-77.14199645,-8.86215497,07:00 AM – 07:00 PM,Dirección del EESS,935398030,179,179,179
GOBIERNO REGIONAL,887,LLATA,HUANUCO,HUAMALIES,LLATA,I-4,-76.81844736,-9.55124821,07:00 AM – 07:00 PM,Dirección del EESS,935398031,180,180,180
GOBIERNO REGIONAL,892,PUÑOS,HUANUCO,HUAMALIES,PUÑOS,I-3,-76.88179697,-9.49977679,07:00 AM – 07:00 PM,Dirección del EESS,935398032,181,181,181
GOBIERNO REGIONAL,895,MIRAFLORES,HUANUCO,HUAMALIES,MIRAFLORES,I-2,-76.81921171,-9.49669732,07:00 AM – 07:00 PM,Dirección del EESS,935398033,182,182,182
GOBIERNO REGIONAL,897,JACAS GRANDE,HUANUCO,HUAMALIES,JACAS GRANDE,I-2,-76.73712551,-9.53873862,07:00 AM – 07:00 PM,Dirección del EESS,935398034,183,183,183
GOBIERNO REGIONAL,900,SINGA,HUANUCO,HUAMALIES,SINGA,I-3,-76.81611385,-9.39130731,07:00 AM – 07:00 PM,Dirección del EESS,935398035,184,184,184
GOBIERNO REGIONAL,901,PUNCHAO,HUANUCO,HUAMALIES,PUNCHAO,I-2,-76.81788992,-9.46035134,07:00 AM – 07:00 PM,Dirección del EESS,935398036,185,185,185
GOBIERNO REGIONAL,903,TANTAMAYO,HUANUCO,HUAMALIES,TANTAMAYO,I-2,-76.72074292,-9.38974188,07:00 AM – 07:00 PM,Dirección del EESS,935398037,186,186,186
GOBIERNO REGIONAL,904,JIRCAN,HUANUCO,HUAMALIES,JIRCAN,I-2,-76.71883729,-9.24798562,07:00 AM – 07:00 PM,Dirección del EESS,935398038,187,187,187
GOBIERNO REGIONAL,905,ARANCAY,HUANUCO,HUAMALIES,ARANCAY,I-2,-76.75284526,-9.17126854,07:00 AM – 07:00 PM,Dirección del EESS,935398039,188,188,188
GOBIERNO REGIONAL,907,PUERTO INCA,HUANUCO,PUERTO INCA,PUERTO INCA,I-3,-74.96451833,-9.37667667,07:00 AM – 07:00 PM,Dirección del EESS,935398040,189,189,189
GOBIERNO REGIONAL,908,PUERTO SUNGARO,HUANUCO,PUERTO INCA,PUERTO INCA,I-2,-75.03469833,-9.36808167,07:00 AM – 07:00 PM,Dirección del EESS,935398041,190,190,190
GOBIERNO REGIONAL,912,TOURNAVISTA,HUANUCO,PUERTO INCA,TOURNAVISTA,I-3,-74.702805,-8.93433833,07:00 AM – 07:00 PM,Dirección del EESS,935398042,191,191,191
GOBIERNO REGIONAL,913,NUEVA HONORIA,HUANUCO,PUERTO INCA,HONORIA,I-2,-74.70781167,-8.76785667,07:00 AM – 07:00 PM,Dirección del EESS,935398043,192,192,192
GOBIERNO REGIONAL,921,PUERTO SIRA,HUANUCO,PUERTO INCA,PUERTO INCA,I-2,-74.88489833,-9.25974,07:00 AM – 07:00 PM,Dirección del EESS,935398044,193,193,193
GOBIERNO REGIONAL,924,YUYAPICHIS,HUANUCO,PUERTO INCA,YUYAPICHIS,I-3,-74.97513,-9.62807667,07:00 AM – 07:00 PM,Dirección del EESS,935398045,194,194,194
GOBIERNO REGIONAL,927,CODO DEL POZUZO,HUANUCO,PUERTO INCA,CODO DEL POZUZO,I-3,-75.463665,-9.66940167,07:00 AM – 07:00 PM,Dirección del EESS,935398046,195,195,195
GOBIERNO REGIONAL,929,SAN JUAN DE CODO,HUANUCO,PUERTO INCA,CODO DEL POZUZO,I-1,-75.4621467,-9.6734062,07:00 AM – 07:00 PM,Dirección del EESS,935398047,196,196,196
GOBIERNO REGIONAL,932,HOSPITAL DE TINGO MARIA (HOSPITAL DE CONTINGENCIA),HUANUCO,LEONCIO PRADO,LUYANDO,II-1,-75.98777333,-9.27106333,07:00 AM – 07:00 PM,Dirección del EESS,935398048,197,197,197
GOBIERNO REGIONAL,933,CASTILLO GRANDE,HUANUCO,LEONCIO PRADO,CASTILLO GRANDE,I-3,-76.009085,-9.28059333,07:00 AM – 07:00 PM,Dirección del EESS,935398049,198,198,198
GOBIERNO REGIONAL,937,SUPTE SAN JORGE,HUANUCO,LEONCIO PRADO,RUPA-RUPA,I-3,-75.97702167,-9.28958167,07:00 AM – 07:00 PM,Dirección del EESS,935398050,199,199,199
GOBIERNO REGIONAL,945,PUMAHUASI,HUANUCO,LEONCIO PRADO,DANIEL ALOMIA ROBLES,I-3,-75.95438167,-9.18796333,07:00 AM – 07:00 PM,Dirección del EESS,935398051,200,200,200
GOBIERNO REGIONAL,952,AUCAYACU,HUANUCO,LEONCIO PRADO,JOSE CRESPO Y CASTILLO,I-4,-76.11270667,-8.92976333,07:00 AM – 07:00 PM,Dirección del EESS,935398052,201,201,201
GOBIERNO REGIONAL,965,MONZON,HUANUCO,HUAMALIES,MONZON,I-3,-76.394965,-9.278845,07:00 AM – 07:00 PM,Dirección del EESS,935398053,202,202,202
GOBIERNO REGIONAL,967,CACHICOTO,HUANUCO,HUAMALIES,MONZON,I-3,-76.23938,-9.21138,07:00 AM – 07:00 PM,Dirección del EESS,935398054,203,203,203
GOBIERNO REGIONAL,979,DR.DANIEL ALCIDES CARRION GARCIA.,PASCO,PASCO,YANACANCHA,II-1,-76.26187809,-10.68776302,07:00 AM – 07:00 PM,Dirección del EESS,935398055,204,204,204
GOBIERNO REGIONAL,980,ERNESTO GERMAN GUZMÁN GONZALES,PASCO,OXAPAMPA,OXAPAMPA,II-1,-75.40243233,-10.57623919,07:00 AM – 07:00 PM,Dirección del EESS,935398056,205,205,205
GOBIERNO REGIONAL,982,RANCAS,PASCO,PASCO,SIMON BOLIVAR,I-3,-76.3168591,-10.68891589,07:00 AM – 07:00 PM,Dirección del EESS,935398057,206,206,206
GOBIERNO REGIONAL,983,PARAGSHA,PASCO,PASCO,SIMON BOLIVAR,I-3,-76.26649137,-10.67208319,07:00 AM – 07:00 PM,Dirección del EESS,935398058,207,207,207
GOBIERNO REGIONAL,993,CHACAYAN,PASCO,DANIEL ALCIDES CARRION,CHACAYAN,I-2,-76.43911167,-10.436875,07:00 AM – 07:00 PM,Dirección del EESS,935398059,208,208,208
GOBIERNO REGIONAL,995,SANTA ANA DE TUSI,PASCO,DANIEL ALCIDES CARRION,SANTA ANA DE TUSI,I-4,-76.35476769,-10.47039497,07:00 AM – 07:00 PM,Dirección del EESS,935398060,209,209,209
GOBIERNO REGIONAL,1009,ULIACHIN,PASCO,PASCO,CHAUPIMARCA,I-3,-76.25575271,-10.69105765,07:00 AM – 07:00 PM,Dirección del EESS,935398061,210,210,210
GOBIERNO REGIONAL,1010,TUPAC AMARU,PASCO,PASCO,CHAUPIMARCA,I-3,-76.24932383,-10.68718397,07:00 AM – 07:00 PM,Dirección del EESS,935398062,211,211,211
GOBIERNO REGIONAL,1014,YARUSYACAN,PASCO,PASCO,SAN FCO DE ASIS DE YARUSYACAN,I-3,-76.19660043,-10.4879264,07:00 AM – 07:00 PM,Dirección del EESS,935398063,212,212,212
GOBIERNO REGIONAL,1026,HUARIACA,PASCO,PASCO,HUARIACA,I-4,-76.18950948,-10.44219845,07:00 AM – 07:00 PM,Dirección del EESS,935398064,213,213,213
GOBIERNO REGIONAL,1047,HUACHON,PASCO,PASCO,HUACHON,I-3,-75.94600667,-10.633735,07:00 AM – 07:00 PM,Dirección del EESS,935398065,214,214,214
GOBIERNO REGIONAL,1051,HUAYLLAY,PASCO,PASCO,HUAYLLAY,I-3,-76.36158,-10.999565,07:00 AM – 07:00 PM,Dirección del EESS,935398066,215,215,215
GOBIERNO REGIONAL,1060,NINACACA,PASCO,PASCO,NINACACA,I-3,-76.11333589,-10.85590528,07:00 AM – 07:00 PM,Dirección del EESS,935398067,216,216,216
GOBIERNO REGIONAL,1064,COLQUIJIRCA,PASCO,PASCO,TINYAHUARCO,I-4,-76.26218156,-10.75167921,07:00 AM – 07:00 PM,Dirección del EESS,935398068,217,217,217
GOBIERNO REGIONAL,1073,CENTRO DE SALUD HUANCABAMBA,PASCO,OXAPAMPA,HUANCABAMBA,I-3,-75.5248,-10.42654167,07:00 AM – 07:00 PM,Dirección del EESS,935398069,218,218,218
GOBIERNO REGIONAL,1075,GRAPANAZU,PASCO,OXAPAMPA,HUANCABAMBA,I-2,-75.47497619,-10.47643511,07:00 AM – 07:00 PM,Dirección del EESS,935398070,219,219,219
GOBIERNO REGIONAL,1081,CENTRO DE SALUD CHONTABAMBA,PASCO,OXAPAMPA,CHONTABAMBA,I-3,-75.43921746,-10.60282578,07:00 AM – 07:00 PM,Dirección del EESS,935398071,220,220,220
GOBIERNO REGIONAL,1085,CHURUMAZU,PASCO,OXAPAMPA,OXAPAMPA,I-2,-75.35931428,-10.77228816,07:00 AM – 07:00 PM,Dirección del EESS,935398072,221,221,221
GOBIERNO REGIONAL,1108,PAUCARTAMBO,PASCO,PASCO,PAUCARTAMBO,I-4,-75.81087888,-10.77332713,07:00 AM – 07:00 PM,Dirección del EESS,935398073,222,222,222
GOBIERNO REGIONAL,1118,CENTRO DE SALUD CIUDAD CONSTITUCIÓN,PASCO,OXAPAMPA,CONSTITUCION,I-4,-75.016225,-9.84807667,07:00 AM – 07:00 PM,Dirección del EESS,935398074,223,223,223
GOBIERNO REGIONAL,1133,ISCOZACIN,PASCO,OXAPAMPA,PALCAZU,I-4,-75.15109206,-10.18735966,07:00 AM – 07:00 PM,Dirección del EESS,935398075,224,224,224
GOBIERNO REGIONAL,1156,PUERTO BERMUDEZ,PASCO,OXAPAMPA,PUERTO BERMUDEZ,I-4,-74.938535,-10.30006,07:00 AM – 07:00 PM,Dirección del EESS,935398076,225,225,225
GOBIERNO REGIONAL,1180,ENEÑAS,PASCO,OXAPAMPA,VILLA RICA,I-2,-75.21573769,-10.74637483,07:00 AM – 07:00 PM,Dirección del EESS,935398077,226,226,226
GOBIERNO REGIONAL,1181,SAN JUAN DE CACAZU,PASCO,OXAPAMPA,VILLA RICA,I-3,-75.11535649,-10.65664103,07:00 AM – 07:00 PM,Dirección del EESS,935398078,227,227,227
GOBIERNO REGIONAL,1201,PAUCAR,PASCO,DANIEL ALCIDES CARRION,PAUCAR,I-2,-76.441385,-10.37568667,07:00 AM – 07:00 PM,Dirección del EESS,935398079,228,228,228
GOBIERNO REGIONAL,1207,TAPUC,PASCO,DANIEL ALCIDES CARRION,TAPUC,I-3,-76.46343333,-10.44961333,07:00 AM – 07:00 PM,Dirección del EESS,935398080,229,229,229
GOBIERNO REGIONAL,1208,VILCABAMBA,PASCO,DANIEL ALCIDES CARRION,VILCABAMBA,I-2,-76.4467333,-10.48073492,07:00 AM – 07:00 PM,Dirección del EESS,935398081,230,230,230
GOBIERNO REGIONAL,1216,PILLAO,PASCO,DANIEL ALCIDES CARRION,SAN PEDRO DE PILLAO,I-2,-76.49415833,-10.44169333,07:00 AM – 07:00 PM,Dirección del EESS,935398082,231,231,231
GOBIERNO REGIONAL,1218,FREDY VALLEJOS ORE,PASCO,DANIEL ALCIDES CARRION,YANAHUANCA,I-4,-76.51557043,-10.49176147,07:00 AM – 07:00 PM,Dirección del EESS,935398083,232,232,232
GOBIERNO REGIONAL,1231,HOSPITAL REGIONAL HONORIO DELGADO ESPINOZA,AREQUIPA,AREQUIPA,AREQUIPA,III-1,-71.53314,-16.41567,07:00 AM – 07:00 PM,Dirección del EESS,935398084,233,233,233
GOBIERNO REGIONAL,1232,HOSPITAL GOYENECHE,AREQUIPA,AREQUIPA,AREQUIPA,III-1,-71.52837833,-16.401595,07:00 AM – 07:00 PM,Dirección del EESS,935398085,234,234,234
GOBIERNO REGIONAL,1233,CENTRO DE SALUD YANAHUARA,AREQUIPA,AREQUIPA,YANAHUARA,I-3,-71.54048923,-16.38601829,07:00 AM – 07:00 PM,Dirección del EESS,935398086,235,235,235
GOBIERNO REGIONAL,1234,CENTRO DE SALUD FRANCISCO BOLOGNESI,AREQUIPA,AREQUIPA,CAYMA,I-3,-71.54222177,-16.35485264,07:00 AM – 07:00 PM,Dirección del EESS,935398087,236,236,236
GOBIERNO REGIONAL,1235,BUENOS AIRES DE CAYMA,AREQUIPA,AREQUIPA,CAYMA,I-3,-71.54932167,-16.35150667,07:00 AM – 07:00 PM,Dirección del EESS,935398088,237,237,237
GOBIERNO REGIONAL,1237,MARITZA CAMPOS DIAZ - ZAMACOLA,AREQUIPA,AREQUIPA,CERRO COLORADO,I-4,-71.5625923,-16.3514378,07:00 AM – 07:00 PM,Dirección del EESS,935398089,238,238,238
GOBIERNO REGIONAL,1238,CENTRO DE SALUD MARISCAL CASTILLA,AREQUIPA,AREQUIPA,CERRO COLORADO,I-3,-71.5690034,-16.38917198,07:00 AM – 07:00 PM,Dirección del EESS,935398090,239,239,239
GOBIERNO REGIONAL,1244,PUESTO DE SALUD LA TOMILLA,AREQUIPA,AREQUIPA,CAYMA,I-2,-71.54458043,-16.36180621,07:00 AM – 07:00 PM,Dirección del EESS,935398091,240,240,240
GOBIERNO REGIONAL,1245,SAN JOSE,AREQUIPA,AREQUIPA,CAYMA,I-2,-71.55452224,-16.34815885,07:00 AM – 07:00 PM,Dirección del EESS,935398092,241,241,241
GOBIERNO REGIONAL,1246,DEAN VALDIVIA,AREQUIPA,AREQUIPA,CAYMA,I-2,-71.54756333,-16.33341,07:00 AM – 07:00 PM,Dirección del EESS,935398093,242,242,242
GOBIERNO REGIONAL,1247,PUESTO DE SALUD CIUDAD MUNICIPAL,AREQUIPA,AREQUIPA,CERRO COLORADO,I-3,-71.59415381,-16.32541994,07:00 AM – 07:00 PM,Dirección del EESS,935398094,243,243,243
GOBIERNO REGIONAL,1249,CENTRO DE SALUD SEMI RURAL PACHACUTEC,AREQUIPA,AREQUIPA,CERRO COLORADO,I-3,-71.57307258,-16.39405746,07:00 AM – 07:00 PM,Dirección del EESS,935398095,244,244,244
GOBIERNO REGIONAL,1250,PUESTO DE SALUD JOSE SANTOS ATAHUALPA,AREQUIPA,AREQUIPA,CERRO COLORADO,I-2,-71.56848022,-16.39811426,07:00 AM – 07:00 PM,Dirección del EESS,935398096,245,245,245
GOBIERNO REGIONAL,1251,PUESTO DE SALUD NAZARENO,AREQUIPA,AREQUIPA,CERRO COLORADO,I-2,-71.54958839,-16.32804293,07:00 AM – 07:00 PM,Dirección del EESS,935398097,246,246,246
GOBIERNO REGIONAL,1252,PUESTO DE SALUD EL CURAL,AREQUIPA,AREQUIPA,CERRO COLORADO,I-1,-71.60821088,-16.40754325,07:00 AM – 07:00 PM,Dirección del EESS,935398098,247,247,247
GOBIERNO REGIONAL,1253,CENTRO DE SALUD CIUDAD DE DIOS,AREQUIPA,AREQUIPA,YURA,I-3,-71.619675,-16.30516833,07:00 AM – 07:00 PM,Dirección del EESS,935398099,248,248,248
GOBIERNO REGIONAL,1257,VICTOR RAUL HINOJOSA,AREQUIPA,AREQUIPA,JOSE LUIS BUSTAMANTE Y RIVERO,I-3,-71.51519313,-16.44440828,07:00 AM – 07:00 PM,Dirección del EESS,935398100,249,249,249
GOBIERNO REGIONAL,1258,CENTRO DE SALUD SAN MARTIN DE SOCABAYA,AREQUIPA,AREQUIPA,SOCABAYA,I-3,-71.53001346,-16.43891117,07:00 AM – 07:00 PM,Dirección del EESS,935398101,250,250,250
GOBIERNO REGIONAL,1259,CENTRO DE SALUD JAVIER LLOSA GARCIA -  HUNTER,AREQUIPA,AREQUIPA,JACOBO HUNTER,I-4,-71.5545,-16.445535,07:00 AM – 07:00 PM,Dirección del EESS,935398102,251,251,251
GOBIERNO REGIONAL,1260,CENTRO DE SALUD TIABAYA,AREQUIPA,AREQUIPA,TIABAYA,I-3,-71.59014322,-16.45055632,07:00 AM – 07:00 PM,Dirección del EESS,935398103,252,252,252
GOBIERNO REGIONAL,1261,CENTRO DE SALUD DE CHARACATO,AREQUIPA,AREQUIPA,CHARACATO,I-3,-71.48537775,-16.46839351,07:00 AM – 07:00 PM,Dirección del EESS,935398104,253,253,253
GOBIERNO REGIONAL,1263,PUESTO DE SALUD 13 DE ENERO,AREQUIPA,AREQUIPA,JOSE LUIS BUSTAMANTE Y RIVERO,I-2,-71.53053591,-16.43296376,07:00 AM – 07:00 PM,Dirección del EESS,935398105,254,254,254
GOBIERNO REGIONAL,1264,CENTRO DE SALUD LAS ESMERALDAS,AREQUIPA,AREQUIPA,JOSE LUIS BUSTAMANTE Y RIVERO,I-3,-71.51231813,-16.45004288,07:00 AM – 07:00 PM,Dirección del EESS,935398106,255,255,255
GOBIERNO REGIONAL,1267,CERRO JULI,AREQUIPA,AREQUIPA,JOSE LUIS BUSTAMANTE Y RIVERO,I-2,-71.54249357,-16.42567922,07:00 AM – 07:00 PM,Dirección del EESS,935398107,256,256,256
GOBIERNO REGIONAL,1268,CENTRO DE SALUD 4 DE OCTUBRE,AREQUIPA,AREQUIPA,SOCABAYA,I-3,-71.5273837,-16.44741132,07:00 AM – 07:00 PM,Dirección del EESS,935398108,257,257,257
GOBIERNO REGIONAL,1269,PUESTO DE SALUD CIUDAD MI TRABAJO,AREQUIPA,AREQUIPA,SOCABAYA,I-2,-71.53409191,-16.44747911,07:00 AM – 07:00 PM,Dirección del EESS,935398109,258,258,258
GOBIERNO REGIONAL,1270,PUESTO DE SALUD LARA,AREQUIPA,AREQUIPA,SOCABAYA,I-2,-71.52755711,-16.45366513,07:00 AM – 07:00 PM,Dirección del EESS,935398110,259,259,259
GOBIERNO REGIONAL,1271,CENTRO DE SALUD SAN FERNANDO,AREQUIPA,AREQUIPA,SOCABAYA,I-3,-71.52829799,-16.47323411,07:00 AM – 07:00 PM,Dirección del EESS,935398111,260,260,260
GOBIERNO REGIONAL,1272,PUESTO DE SALUD SALAVERRY,AREQUIPA,AREQUIPA,SOCABAYA,I-2,-71.53645074,-16.43492124,07:00 AM – 07:00 PM,Dirección del EESS,935398112,261,261,261
GOBIERNO REGIONAL,1273,PUESTO DE SALUD DANIEL ALCIDES CARRION,AREQUIPA,AREQUIPA,JACOBO HUNTER,I-2,-71.55064167,-16.44873667,07:00 AM – 07:00 PM,Dirección del EESS,935398113,262,262,262
GOBIERNO REGIONAL,1274,PUESTO DE SALUD PAMPAS DEL CUZCO,AREQUIPA,AREQUIPA,JACOBO HUNTER,I-2,-71.55759333,-16.4504,07:00 AM – 07:00 PM,Dirección del EESS,935398114,263,263,263
GOBIERNO REGIONAL,1275,PUESTO DE SALUD CHILPINILLA,AREQUIPA,AREQUIPA,JACOBO HUNTER,I-2,-71.552225,-16.44025167,07:00 AM – 07:00 PM,Dirección del EESS,935398115,264,264,264
GOBIERNO REGIONAL,1276,CENTRO DE SALUD CAMINOS DEL INCA,AREQUIPA,AREQUIPA,JACOBO HUNTER,I-2,-71.56375167,-16.43449,07:00 AM – 07:00 PM,Dirección del EESS,935398116,265,265,265
GOBIERNO REGIONAL,1277,ALTO ALIANZA,AREQUIPA,AREQUIPA,JACOBO HUNTER,I-2,-71.55280167,-16.455345,07:00 AM – 07:00 PM,Dirección del EESS,935398117,266,266,266
GOBIERNO REGIONAL,1279,PUESTO DE SALUD UPIS PAISAJISTA,AREQUIPA,AREQUIPA,JACOBO HUNTER,I-2,-71.555325,-16.46142333,07:00 AM – 07:00 PM,Dirección del EESS,935398118,267,267,267
GOBIERNO REGIONAL,1280,CERRO VERDE,AREQUIPA,AREQUIPA,UCHUMAYO,I-3,-71.614663,-16.451012,07:00 AM – 07:00 PM,Dirección del EESS,935398119,268,268,268
GOBIERNO REGIONAL,1281,CONGATA,AREQUIPA,AREQUIPA,UCHUMAYO,I-3,-71.619783,-16.444755,07:00 AM – 07:00 PM,Dirección del EESS,935398120,269,269,269
GOBIERNO REGIONAL,1282,PUESTO DE SALUD SACHACA,AREQUIPA,AREQUIPA,SACHACA,I-2,-71.566229,-16.42512291,07:00 AM – 07:00 PM,Dirección del EESS,935398121,270,270,270
GOBIERNO REGIONAL,1283,PUESTO DE SALUD PAMPA DE CAMARONES,AREQUIPA,AREQUIPA,SACHACA,I-2,-71.57208509,-16.41128147,07:00 AM – 07:00 PM,Dirección del EESS,935398122,271,271,271
GOBIERNO REGIONAL,1288,PUESTO DE SALUD POCSI,AREQUIPA,AREQUIPA,POCSI,I-1,-71.38953157,-16.5179115,07:00 AM – 07:00 PM,Dirección del EESS,935398123,272,272,272
GOBIERNO REGIONAL,1292,CENTRO DE SALUD EDIFICADORES MISTI,AREQUIPA,AREQUIPA,MIRAFLORES,I-4,-71.511274,-16.383061,07:00 AM – 07:00 PM,Dirección del EESS,935398124,273,273,273
GOBIERNO REGIONAL,1293,CENTRO DE SALUD MIRAFLORES,AREQUIPA,AREQUIPA,MIRAFLORES,I-3,-71.523621,-16.395062,07:00 AM – 07:00 PM,Dirección del EESS,935398125,274,274,274
GOBIERNO REGIONAL,1294,CENTRO DE SALUD MARIANO MELGAR,AREQUIPA,AREQUIPA,MARIANO MELGAR,I-4,-71.511537,-16.401929,07:00 AM – 07:00 PM,Dirección del EESS,935398126,275,275,275
GOBIERNO REGIONAL,1295,CENTRO DE SALUD GENERALISIMO SAN MARTIN,AREQUIPA,AREQUIPA,MARIANO MELGAR,I-3,-71.49744255,-16.40465083,07:00 AM – 07:00 PM,Dirección del EESS,935398127,276,276,276
GOBIERNO REGIONAL,1296,CENTRO DE SALUD  AMPLIACIÓN PAUCARPATA,AREQUIPA,AREQUIPA,PAUCARPATA,I-4,-71.503445,-16.42708313,07:00 AM – 07:00 PM,Dirección del EESS,935398128,277,277,277
GOBIERNO REGIONAL,1298,CENTRO DE SALUD 15 DE AGOSTO,AREQUIPA,AREQUIPA,PAUCARPATA,I-3,-71.50016643,-16.4130014,07:00 AM – 07:00 PM,Dirección del EESS,935398129,278,278,278
GOBIERNO REGIONAL,1299,CENTRO DE SALUD CHIGUATA,AREQUIPA,AREQUIPA,CHIGUATA,I-3,-71.39231933,-16.40277486,07:00 AM – 07:00 PM,Dirección del EESS,935398130,279,279,279
GOBIERNO REGIONAL,1310,CENTRO DE SALUD MANUEL PRADO,AREQUIPA,AREQUIPA,PAUCARPATA,I-2,-71.51264284,-16.41573556,07:00 AM – 07:00 PM,Dirección del EESS,935398131,280,280,280
GOBIERNO REGIONAL,1313,CENTRO DE SALUD NUEVA ALBORADA,AREQUIPA,AREQUIPA,PAUCARPATA,I-3,-71.49110665,-16.43390621,07:00 AM – 07:00 PM,Dirección del EESS,935398132,281,281,281
GOBIERNO REGIONAL,1315,CENTRO DE SALUD CAMPO MARTE,AREQUIPA,AREQUIPA,PAUCARPATA,I-3,-71.49667335,-16.42725308,07:00 AM – 07:00 PM,Dirección del EESS,935398133,282,282,282
GOBIERNO REGIONAL,1316,PUESTO DE SALUD MIGUEL GRAU  MODULO A,AREQUIPA,AREQUIPA,PAUCARPATA,I-2,-71.49421984,-16.40853203,07:00 AM – 07:00 PM,Dirección del EESS,935398134,283,283,283
GOBIERNO REGIONAL,1317,CENTRO DE SALUD MIGUEL GRAU  B,AREQUIPA,AREQUIPA,PAUCARPATA,I-3,-71.48503702,-16.40950532,07:00 AM – 07:00 PM,Dirección del EESS,935398135,284,284,284
GOBIERNO REGIONAL,1318,PUESTO DE SALUD MIGUEL GRAU  MODULO C-D,AREQUIPA,AREQUIPA,PAUCARPATA,I-2,-71.48030181,-16.40793389,07:00 AM – 07:00 PM,Dirección del EESS,935398136,285,285,285
GOBIERNO REGIONAL,1322,LA JOYA,AREQUIPA,AREQUIPA,LA JOYA,I-3,-71.81644588,-16.42251348,07:00 AM – 07:00 PM,Dirección del EESS,935398137,286,286,286
GOBIERNO REGIONAL,1324,CENTRO DE SALUD VITOR,AREQUIPA,AREQUIPA,VITOR,I-3,-71.93673833,-16.46679833,07:00 AM – 07:00 PM,Dirección del EESS,935398138,287,287,287
GOBIERNO REGIONAL,1325,CENTRO DE SALUD  SANDRITA PEREZ EL PEDREGAL,AREQUIPA,CAYLLOMA,MAJES,I-4,-72.19036941,-16.36211873,07:00 AM – 07:00 PM,Dirección del EESS,935398139,288,288,288
GOBIERNO REGIONAL,1330,EL CRUCE - TRIUNFO,AREQUIPA,AREQUIPA,LA JOYA,I-3,-71.83864805,-16.49559069,07:00 AM – 07:00 PM,Dirección del EESS,935398140,289,289,289
GOBIERNO REGIONAL,1335,CENTRO  DE SALUD SANTA RITA DE SIGUAS,AREQUIPA,AREQUIPA,SANTA RITA DE SIHUAS,I-2,-72.093615,-16.488805,07:00 AM – 07:00 PM,Dirección del EESS,935398141,290,290,290
GOBIERNO REGIONAL,1344,HOSPITAL DE CAMANA,AREQUIPA,CAMANA,CAMANA,II-1,-74.44216848,-15.47487068,07:00 AM – 07:00 PM,Dirección del EESS,935398142,291,291,291
GOBIERNO REGIONAL,1345,CENTRO DE SALUD SAN JOSE,AREQUIPA,CAMANA,MARISCAL CACERES,I-3,-72.73523808,-16.61956452,07:00 AM – 07:00 PM,Dirección del EESS,935398143,292,292,292
GOBIERNO REGIONAL,1346,LA PAMPA,AREQUIPA,CAMANA,SAMUEL PASTOR,I-3,-72.69956985,-16.61372775,07:00 AM – 07:00 PM,Dirección del EESS,935398144,293,293,293
GOBIERNO REGIONAL,1347,CENTRO DE SALUD SAN GREGORIO,AREQUIPA,CAMANA,NICOLAS DE PIEROLA,I-3,-72.71509159,-16.57266369,07:00 AM – 07:00 PM,Dirección del EESS,935398145,294,294,294
GOBIERNO REGIONAL,1348,CENTRO DE SALUD OCOÑA,AREQUIPA,CAMANA,OCOÑA,I-3,-73.10560031,-16.43482519,07:00 AM – 07:00 PM,Dirección del EESS,935398146,295,295,295
GOBIERNO REGIONAL,1349,CENTRO DE SALUD ATICO,AREQUIPA,CARAVELI,ATICO,I-3,-73.60683834,-16.22901204,07:00 AM – 07:00 PM,Dirección del EESS,935398147,296,296,296
GOBIERNO REGIONAL,1350,CENTRO DE SALUD CHALA,AREQUIPA,CARAVELI,CHALA,I-3,-74.24662,-15.86067667,07:00 AM – 07:00 PM,Dirección del EESS,935398148,297,297,297
GOBIERNO REGIONAL,1351,CENTRO DE SALUD CARAVELI,AREQUIPA,CARAVELI,CARAVELI,I-3,-73.36849961,-15.77487681,07:00 AM – 07:00 PM,Dirección del EESS,935398149,298,298,298
GOBIERNO REGIONAL,1352,CENTRO DE SALUD ACARI,AREQUIPA,CARAVELI,ACARI,I-3,-74.62286493,-15.45316165,07:00 AM – 07:00 PM,Dirección del EESS,935398150,299,299,299
GOBIERNO REGIONAL,1353,CENTRO DE SALUD PUCCHUN,AREQUIPA,CAMANA,MARISCAL CACERES,I-3,-72.77111819,-16.6026804,07:00 AM – 07:00 PM,Dirección del EESS,935398151,300,300,300
GOBIERNO REGIONAL,1354,PUESTO DE SALUD LUIS FERNANDEZ CORTEGANA - HUACAPUY,AREQUIPA,CAMANA,JOSE MARIA QUIMPER,I-2,-72.74978235,-16.60163353,07:00 AM – 07:00 PM,Dirección del EESS,935398152,301,301,301
GOBIERNO REGIONAL,1355,EL CARDO,AREQUIPA,CAMANA,JOSE MARIA QUIMPER,I-2,-72.72570466,-16.60203229,07:00 AM – 07:00 PM,Dirección del EESS,935398153,302,302,302
GOBIERNO REGIONAL,1356,PUESTO DE SALUD EL PUENTE,AREQUIPA,CAMANA,JOSE MARIA QUIMPER,I-1,-72.73605156,-16.58546798,07:00 AM – 07:00 PM,Dirección del EESS,935398154,303,303,303
GOBIERNO REGIONAL,1357,EL CARMEN-CAMANA,AREQUIPA,CAMANA,SAMUEL PASTOR,I-3,-72.70124329,-16.60371903,07:00 AM – 07:00 PM,Dirección del EESS,935398155,304,304,304
GOBIERNO REGIONAL,1359,JUAN PABLO VIZCARDO GUZMAN,AREQUIPA,CAMANA,SAMUEL PASTOR,I-2,-72.69856497,-16.597831,07:00 AM – 07:00 PM,Dirección del EESS,935398156,305,305,305
GOBIERNO REGIONAL,1360,PUESTO DE SALUD HACIENDA DEL MEDIO,AREQUIPA,CAMANA,NICOLAS DE PIEROLA,I-2,-72.70881667,-16.58404,07:00 AM – 07:00 PM,Dirección del EESS,935398157,306,306,306
GOBIERNO REGIONAL,1362,PUESTO DE SALUD QUILCA,AREQUIPA,CAMANA,QUILCA,I-2,-72.42586196,-16.71699003,07:00 AM – 07:00 PM,Dirección del EESS,935398158,307,307,307
GOBIERNO REGIONAL,1365,PUESTO DE SALID URASQUI,AREQUIPA,CAMANA,MARIANO NICOLAS VALCARCEL,I-2,-73.173625,-16.03055167,07:00 AM – 07:00 PM,Dirección del EESS,935398159,308,308,308
GOBIERNO REGIONAL,1373,PUESTO DE SALUD JAQUI,AREQUIPA,CARAVELI,JAQUI,I-2,-74.44204578,-15.47492872,07:00 AM – 07:00 PM,Dirección del EESS,935398160,309,309,309
GOBIERNO REGIONAL,1375,PUESTO DE SALUD YAUCA,AREQUIPA,CARAVELI,YAUCA,I-2,-74.530195,-15.66397167,07:00 AM – 07:00 PM,Dirección del EESS,935398161,310,310,310
GOBIERNO REGIONAL,1377,PUESTO DE SALUD CAHUACHO,AREQUIPA,CARAVELI,CAHUACHO,I-2,-73.47877504,-15.50414347,07:00 AM – 07:00 PM,Dirección del EESS,935398162,311,311,311
GOBIERNO REGIONAL,1380,IQUIPI,AREQUIPA,CONDESUYOS,RIO GRANDE,I-3,-73.13102697,-15.93982886,07:00 AM – 07:00 PM,Dirección del EESS,935398163,312,312,312
GOBIERNO REGIONAL,1381,PUESTO DE SALUD PIUCA,AREQUIPA,CONDESUYOS,RIO GRANDE,I-1,-73.16772333,-16.01001667,07:00 AM – 07:00 PM,Dirección del EESS,935398164,313,313,313
GOBIERNO REGIONAL,1382,HOSPITAL APLAO,AREQUIPA,CASTILLA,APLAO,II-1,-72.49043833,-16.076545,07:00 AM – 07:00 PM,Dirección del EESS,935398165,314,314,314
GOBIERNO REGIONAL,1383,CENTRO DE SALUD CORIRE,AREQUIPA,CASTILLA,URACA,I-4,-72.47076497,-16.22668452,07:00 AM – 07:00 PM,Dirección del EESS,935398166,315,315,315
GOBIERNO REGIONAL,1419,CENTRO DE SALUD CHIVAY,AREQUIPA,CAYLLOMA,CHIVAY,I-4,-71.59924381,-15.63378644,07:00 AM – 07:00 PM,Dirección del EESS,935398167,316,316,316
GOBIERNO REGIONAL,1420,CABANACONDE,AREQUIPA,CAYLLOMA,CABANACONDE,I-3,-71.97558361,-15.61965523,07:00 AM – 07:00 PM,Dirección del EESS,935398168,317,317,317
GOBIERNO REGIONAL,1421,CENTRO DE SALUD CALLALLI,AREQUIPA,CAYLLOMA,CALLALLI,I-3,-71.44226742,-15.5055231,07:00 AM – 07:00 PM,Dirección del EESS,935398169,318,318,318
GOBIERNO REGIONAL,1422,CENTRO DE SALUD CAYLLOMA,AREQUIPA,CAYLLOMA,CAYLLOMA,I-3,-71.7704317,-15.18617579,07:00 AM – 07:00 PM,Dirección del EESS,935398170,319,319,319
GOBIERNO REGIONAL,1423,PUESTO DE SALUD CANOCOTA,AREQUIPA,CAYLLOMA,CHIVAY,I-1,-71.56146349,-15.55911988,07:00 AM – 07:00 PM,Dirección del EESS,935398171,320,320,320
GOBIERNO REGIONAL,1424,PUESTO DE SALUD COPORAQUE,AREQUIPA,CAYLLOMA,COPORAQUE,I-2,-71.64591144,-15.6255497,07:00 AM – 07:00 PM,Dirección del EESS,935398172,321,321,321
GOBIERNO REGIONAL,1425,PUESTO DE SALUD ICHUPAMPA,AREQUIPA,CAYLLOMA,ICHUPAMPA,I-2,-71.68484647,-15.65093197,07:00 AM – 07:00 PM,Dirección del EESS,935398173,322,322,322
GOBIERNO REGIONAL,1426,PUESTO DE SALUD LARI,AREQUIPA,CAYLLOMA,LARI,I-2,-71.76748928,-15.62347015,07:00 AM – 07:00 PM,Dirección del EESS,935398174,323,323,323
GOBIERNO REGIONAL,1427,PUESTO DE SALUD MADRIGAL,AREQUIPA,CAYLLOMA,MADRIGAL,I-1,-71.80671118,-15.60751128,07:00 AM – 07:00 PM,Dirección del EESS,935398175,324,324,324
GOBIERNO REGIONAL,1428,PUESTO DE SALUD YANQUE,AREQUIPA,CAYLLOMA,YANQUE,I-2,-71.65861317,-15.64765606,07:00 AM – 07:00 PM,Dirección del EESS,935398176,325,325,325
GOBIERNO REGIONAL,1429,PUESTO DE SALUD ACHOMA,AREQUIPA,CAYLLOMA,ACHOMA,I-2,-71.69934307,-15.66127872,07:00 AM – 07:00 PM,Dirección del EESS,935398177,326,326,326
GOBIERNO REGIONAL,1430,PUESTO DE SALUD MACA,AREQUIPA,CAYLLOMA,MACA,I-2,-71.76873565,-15.64025044,07:00 AM – 07:00 PM,Dirección del EESS,935398178,327,327,327
GOBIERNO REGIONAL,1443,CENTRO DE SALUD MATARANI,AREQUIPA,ISLAY,ISLAY,I-3,-72.097925,-16.999742,07:00 AM – 07:00 PM,Dirección del EESS,935398179,328,328,328
GOBIERNO REGIONAL,1444,CENTRO DE SALUD ALTO INCLAN,AREQUIPA,ISLAY,MOLLENDO,I-4,-72.0048514,-17.02003443,07:00 AM – 07:00 PM,Dirección del EESS,935398180,329,329,329
GOBIERNO REGIONAL,1445,CENTRO DE SALUD COCACHACRA,AREQUIPA,ISLAY,COCACHACRA,I-3,-71.76087434,-17.09015739,07:00 AM – 07:00 PM,Dirección del EESS,935398181,330,330,330
GOBIERNO REGIONAL,1455,CENTRO DE SALUD COTAHUASI,AREQUIPA,LA UNION,COTAHUASI,I-4,-72.88637242,-15.21339402,07:00 AM – 07:00 PM,Dirección del EESS,935398182,331,331,331
GOBIERNO REGIONAL,1472,HOSPITAL DE APOYO RECUAY,ANCASH,RECUAY,RECUAY,II-1,-77.453195,-9.72803333,07:00 AM – 07:00 PM,Dirección del EESS,935398183,332,332,332
GOBIERNO REGIONAL,1474,PUESTO DE SALUD TICAPAMPA,ANCASH,RECUAY,TICAPAMPA,I-1,-77.44356667,-9.75783833,07:00 AM – 07:00 PM,Dirección del EESS,935398184,333,333,333
GOBIERNO REGIONAL,1476,CENTRO DE SALUD CATAC,ANCASH,RECUAY,CATAC,I-3,-77.43171373,-9.80043694,07:00 AM – 07:00 PM,Dirección del EESS,935398185,334,334,334
GOBIERNO REGIONAL,1478,PUESTO DE SALUD TAPACOCHA,ANCASH,RECUAY,TAPACOCHA,I-1,-77.57041667,-10.01032333,07:00 AM – 07:00 PM,Dirección del EESS,935398186,335,335,335
GOBIERNO REGIONAL,1484,CENTRO DE SALUD CAJACAY,ANCASH,BOLOGNESI,CAJACAY,I-3,-77.44037333,-10.156045,07:00 AM – 07:00 PM,Dirección del EESS,935398187,336,336,336
GOBIERNO REGIONAL,1489,PUESTO DE SALUD PARARIN,ANCASH,RECUAY,PARARIN,I-1,-77.65569158,-10.05129198,07:00 AM – 07:00 PM,Dirección del EESS,935398188,337,337,337
GOBIERNO REGIONAL,1493,CENTRO DE SALUD CHIQUIAN,ANCASH,BOLOGNESI,CHIQUIAN,I-4,-77.157115,-10.14750333,07:00 AM – 07:00 PM,Dirección del EESS,935398189,338,338,338
GOBIERNO REGIONAL,1505,PUESTO DE SALUD CORPANQUI,ANCASH,BOLOGNESI,SAN MIGUEL DE CORPANQUI,I-2,-77.19839948,-10.28517152,07:00 AM – 07:00 PM,Dirección del EESS,935398190,339,339,339
GOBIERNO REGIONAL,1507,CENTRO DE SALUD HUALLANCA,ANCASH,BOLOGNESI,HUALLANCA,I-3,-76.942865,-9.89725167,07:00 AM – 07:00 PM,Dirección del EESS,935398191,340,340,340
GOBIERNO REGIONAL,1508,CENTRO DE SALUD AIJA,ANCASH,AIJA,AIJA,I-3,-77.60884667,-9.779475,07:00 AM – 07:00 PM,Dirección del EESS,935398192,341,341,341
GOBIERNO REGIONAL,1509,PUESTO DE SALUD CORIS,ANCASH,AIJA,CORIS,I-2,-77.71657833,-9.82326333,07:00 AM – 07:00 PM,Dirección del EESS,935398193,342,342,342
GOBIERNO REGIONAL,1516,HOSPITAL DE APOYO CARHUAZ,ANCASH,CARHUAZ,CARHUAZ,II-1,-77.6493849,-9.27748394,07:00 AM – 07:00 PM,Dirección del EESS,935398194,343,343,343
GOBIERNO REGIONAL,1521,CENTRO DE SALUD ACOPAMPA,ANCASH,CARHUAZ,ACOPAMPA,I-3,-77.62816,-9.29070333,07:00 AM – 07:00 PM,Dirección del EESS,935398195,344,344,344
GOBIERNO REGIONAL,1526,PUESTO DE SALUD SHILLA,ANCASH,CARHUAZ,SHILLA,I-2,-77.627685,-9.23735,07:00 AM – 07:00 PM,Dirección del EESS,935398196,345,345,345
GOBIERNO REGIONAL,1528,ANTA,ANCASH,CARHUAZ,ANTA,I-3,-77.59849,-9.35820167,07:00 AM – 07:00 PM,Dirección del EESS,935398197,346,346,346
GOBIERNO REGIONAL,1529,CENTRO DE SALUD YUNGAR,ANCASH,CARHUAZ,YUNGAR,I-3,-77.59065,-9.37949333,07:00 AM – 07:00 PM,Dirección del EESS,935398198,347,347,347
GOBIERNO REGIONAL,1534,CENTRO DE SALUD MARCARA,ANCASH,CARHUAZ,MARCARA,I-3,-77.60247833,-9.32649333,07:00 AM – 07:00 PM,Dirección del EESS,935398199,348,348,348
GOBIERNO REGIONAL,1536,VICOS,ANCASH,CARHUAZ,MARCARA,I-2,-77.55361704,-9.3282386,07:00 AM – 07:00 PM,Dirección del EESS,935398200,349,349,349
GOBIERNO REGIONAL,1539,SAN MIGUEL  DE ACO,ANCASH,CARHUAZ,SAN MIGUEL DE ACO,I-1,-77.56555525,-9.36725914,07:00 AM – 07:00 PM,Dirección del EESS,935398201,350,350,350
GOBIERNO REGIONAL,1540,HOSPITAL MAMA ASHU CHACAS,ANCASH,ASUNCION,CHACAS,I-4,-77.36815658,-9.16379089,07:00 AM – 07:00 PM,Dirección del EESS,935398202,351,351,351
GOBIERNO REGIONAL,1546,PUESTO DE SALUD SAN NICOLAS,ANCASH,HUARAZ,HUARAZ,I-2,-77.51508167,-9.59364833,07:00 AM – 07:00 PM,Dirección del EESS,935398203,352,352,352
GOBIERNO REGIONAL,1557,CENTRO DE SALUD NICRUPAMPA,ANCASH,HUARAZ,INDEPENDENCIA,I-3,-77.52403203,-9.52074004,07:00 AM – 07:00 PM,Dirección del EESS,935398204,353,353,353
GOBIERNO REGIONAL,1562,CENTRO DE SALUD HUARUPAMPA,ANCASH,HUARAZ,HUARAZ,I-3,-77.53026167,-9.525825,07:00 AM – 07:00 PM,Dirección del EESS,935398205,354,354,354
GOBIERNO REGIONAL,1568,CENTRO DE SALUD PALMIRA,ANCASH,HUARAZ,INDEPENDENCIA,I-3,-77.53422246,-9.50711636,07:00 AM – 07:00 PM,Dirección del EESS,935398206,355,355,355
GOBIERNO REGIONAL,1574,CENTRO DE SALUD MONTERREY,ANCASH,HUARAZ,INDEPENDENCIA,I-3,-77.53840629,-9.47453774,07:00 AM – 07:00 PM,Dirección del EESS,935398207,356,356,356
GOBIERNO REGIONAL,1576,CHAVIN,ANCASH,HUARAZ,INDEPENDENCIA,I-1,-77.53679279,-9.43361632,07:00 AM – 07:00 PM,Dirección del EESS,935398208,357,357,357
GOBIERNO REGIONAL,1582,CENTRO DE SALUD JANGAS,ANCASH,HUARAZ,JANGAS,I-3,-77.57684667,-9.40062833,07:00 AM – 07:00 PM,Dirección del EESS,935398209,358,358,358
GOBIERNO REGIONAL,1585,PUESTO DE SALUD PIRA,ANCASH,HUARAZ,PIRA,I-2,-77.70388639,-9.58302603,07:00 AM – 07:00 PM,Dirección del EESS,935398210,359,359,359
GOBIERNO REGIONAL,1587,HOSPITAL DE APOYO CARAZ,ANCASH,HUAYLAS,CARAZ,II-1,-77.80641228,-9.04451173,07:00 AM – 07:00 PM,Dirección del EESS,935398211,360,360,360
GOBIERNO REGIONAL,1590,PUESTO DE SALUD YURACOTO,ANCASH,HUAYLAS,CARAZ,I-1,-77.82047167,-9.01609167,07:00 AM – 07:00 PM,Dirección del EESS,935398212,361,361,361
GOBIERNO REGIONAL,1595,CENTRO DE SALUD HUARIPAMPA,ANCASH,HUAYLAS,SANTA CRUZ,I-3,-77.81433333,-8.95191167,07:00 AM – 07:00 PM,Dirección del EESS,935398213,362,362,362
GOBIERNO REGIONAL,1599,PUESTO DE SALUD YURACMARCA,ANCASH,HUAYLAS,YURACMARCA,I-2,-77.89925167,-8.7448,07:00 AM – 07:00 PM,Dirección del EESS,935398214,363,363,363
GOBIERNO REGIONAL,1605,CENTRO DE SALUD MATO,ANCASH,HUAYLAS,MATO,I-3,-77.839335,-8.96031,07:00 AM – 07:00 PM,Dirección del EESS,935398215,364,364,364
GOBIERNO REGIONAL,1611,CENTRO DE SALUD PUEBLO LIBRE,ANCASH,HUAYLAS,PUEBLO LIBRE,I-3,-77.80305379,-9.09867391,07:00 AM – 07:00 PM,Dirección del EESS,935398216,365,365,365
GOBIERNO REGIONAL,1617,CENTRO DE SALUD PAMPAROMAS,ANCASH,HUAYLAS,PAMPAROMAS,I-3,-77.98197618,-9.07286864,07:00 AM – 07:00 PM,Dirección del EESS,935398217,366,366,366
GOBIERNO REGIONAL,1625,CENTRO DE SALUD CORONGO,ANCASH,CORONGO,CORONGO,I-3,-77.89627667,-8.572825,07:00 AM – 07:00 PM,Dirección del EESS,935398218,367,367,367
GOBIERNO REGIONAL,1631,PUESTO DE SALUD LA PAMPA,ANCASH,CORONGO,LA PAMPA,I-1,-77.902315,-8.660595,07:00 AM – 07:00 PM,Dirección del EESS,935398219,368,368,368
GOBIERNO REGIONAL,1633,HOSPITAL DE APOYO YUNGAY,ANCASH,YUNGAY,YUNGAY,II-1,-77.74555107,-9.13836806,07:00 AM – 07:00 PM,Dirección del EESS,935398220,369,369,369
GOBIERNO REGIONAL,1641,CENTRO DE SALUD MANCOS,ANCASH,YUNGAY,MANCOS,I-3,-77.70849951,-9.18850706,07:00 AM – 07:00 PM,Dirección del EESS,935398221,370,370,370
GOBIERNO REGIONAL,1645,CENTRO DE SALUD TUMPA,ANCASH,YUNGAY,YUNGAY,I-3,-77.66516121,-9.17339646,07:00 AM – 07:00 PM,Dirección del EESS,935398222,371,371,371
GOBIERNO REGIONAL,1646,PUESTO DE SALUD RANRAHIRCA,ANCASH,YUNGAY,RANRAHIRCA,I-1,-77.72046983,-9.17785488,07:00 AM – 07:00 PM,Dirección del EESS,935398223,372,372,372
GOBIERNO REGIONAL,1648,CENTRO DE SALUD YANAMA,ANCASH,YUNGAY,YANAMA,I-3,-77.46851333,-9.016865,07:00 AM – 07:00 PM,Dirección del EESS,935398224,373,373,373
GOBIERNO REGIONAL,1652,HOSPITAL LA CALETA,ANCASH,SANTA,CHIMBOTE,II-2,-78.6017774,-9.07562297,07:00 AM – 07:00 PM,Dirección del EESS,935398225,374,374,374
GOBIERNO REGIONAL,1654,CENTRO DE SALUD MIRAFLORES ALTO,ANCASH,SANTA,CHIMBOTE,I-3,-78.57040973,-9.08843009,07:00 AM – 07:00 PM,Dirección del EESS,935398226,375,375,375
GOBIERNO REGIONAL,1655,CENTRO DE SALUD FLORIDA,ANCASH,SANTA,CHIMBOTE,I-3,-78.57843058,-9.08572925,07:00 AM – 07:00 PM,Dirección del EESS,935398227,376,376,376
GOBIERNO REGIONAL,1659,CENTRO DE SALUD PROGRESO,ANCASH,SANTA,CHIMBOTE,I-4,-78.58748786,-9.06722886,07:00 AM – 07:00 PM,Dirección del EESS,935398228,377,377,377
GOBIERNO REGIONAL,1660,PUESTO DE SALUD LA UNIÓN,ANCASH,SANTA,CHIMBOTE,I-2,-78.5744781,-9.05013822,07:00 AM – 07:00 PM,Dirección del EESS,935398229,378,378,378
GOBIERNO REGIONAL,1662,PUESTO DE SALUD VICTOR  RAUL,ANCASH,SANTA,CHIMBOTE,I-2,-78.59433687,-9.06854793,07:00 AM – 07:00 PM,Dirección del EESS,935398230,379,379,379
GOBIERNO REGIONAL,1664,PUESTO DE SALUD LA ESPERANZA,ANCASH,SANTA,CHIMBOTE,I-2,-78.58186197,-9.05675866,07:00 AM – 07:00 PM,Dirección del EESS,935398231,380,380,380
GOBIERNO REGIONAL,1669,PUESTO DE SALUD MAGDALENA NUEVA,ANCASH,SANTA,CHIMBOTE,I-2,-78.58178337,-9.07171004,07:00 AM – 07:00 PM,Dirección del EESS,935398232,381,381,381
GOBIERNO REGIONAL,1675,CENTRO DE SALUD COISHCO,ANCASH,SANTA,COISHCO,I-3,-78.6140252,-9.02166397,07:00 AM – 07:00 PM,Dirección del EESS,935398233,382,382,382
GOBIERNO REGIONAL,1676,CENTRO DE SALUD SANTA,ANCASH,SANTA,SANTA,I-3,-78.6153025,-8.98607928,07:00 AM – 07:00 PM,Dirección del EESS,935398234,383,383,383
GOBIERNO REGIONAL,1684,CENTRO DE SALUD CABANA,ANCASH,PALLASCA,CABANA,I-3,-78.00511286,-8.39564896,07:00 AM – 07:00 PM,Dirección del EESS,935398235,384,384,384
GOBIERNO REGIONAL,1688,CENTRO DE SALUD CONCHUCOS,ANCASH,PALLASCA,CONCHUCOS,I-3,-77.85198442,-8.26444022,07:00 AM – 07:00 PM,Dirección del EESS,935398236,385,385,385
GOBIERNO REGIONAL,1695,CENTRO DE SALUD PALLASCA,ANCASH,PALLASCA,PALLASCA,I-3,-77.99988877,-8.25103456,07:00 AM – 07:00 PM,Dirección del EESS,935398237,386,386,386
GOBIERNO REGIONAL,1696,CENTRO DE SALUD PAMPAS,ANCASH,PALLASCA,PAMPAS,I-3,-77.89265982,-8.19400779,07:00 AM – 07:00 PM,Dirección del EESS,935398238,387,387,387
GOBIERNO REGIONAL,1703,ELEAZAR GUZMAN BARRON,ANCASH,SANTA,NUEVO CHIMBOTE,II-2,-78.520213,-9.118993,07:00 AM – 07:00 PM,Dirección del EESS,935398239,388,388,388
GOBIERNO REGIONAL,1704,CENTRO DE SALUD YUGOSLAVIA,ANCASH,SANTA,NUEVO CHIMBOTE,I-4,-78.51919552,-9.1323422,07:00 AM – 07:00 PM,Dirección del EESS,935398240,389,389,389
GOBIERNO REGIONAL,1705,PUESTO DE SALUD 3 DE OCTUBRE,ANCASH,SANTA,NUEVO CHIMBOTE,I-2,-78.53955184,-9.11610303,07:00 AM – 07:00 PM,Dirección del EESS,935398241,390,390,390
GOBIERNO REGIONAL,1706,PUESTO DE SALUD VILLA MARIA,ANCASH,SANTA,NUEVO CHIMBOTE,I-2,-78.54523354,-9.1189991,07:00 AM – 07:00 PM,Dirección del EESS,935398242,391,391,391
GOBIERNO REGIONAL,1708,PUESTO DE SALUD JIMBE,ANCASH,SANTA,CACERES DEL PERU,I-2,-78.13968884,-9.01526065,07:00 AM – 07:00 PM,Dirección del EESS,935398243,392,392,392
GOBIERNO REGIONAL,1714,CENTRO DE SALUD NEPEÑA,ANCASH,SANTA,NEPEÑA,I-3,-78.35714242,-9.17195511,07:00 AM – 07:00 PM,Dirección del EESS,935398244,393,393,393
GOBIERNO REGIONAL,1715,CENTRO DE SALUD SAN JACINTO,ANCASH,SANTA,NEPEÑA,I-3,-78.27668369,-9.14530627,07:00 AM – 07:00 PM,Dirección del EESS,935398245,394,394,394
GOBIERNO REGIONAL,1716,CENTRO DE SALUD MORO,ANCASH,SANTA,MORO,I-3,-78.18465623,-9.13980296,07:00 AM – 07:00 PM,Dirección del EESS,935398246,395,395,395
GOBIERNO REGIONAL,1719,HOSPITAL DE APOYO CASMA,ANCASH,CASMA,CASMA,II-1,-78.30498052,-9.47397062,07:00 AM – 07:00 PM,Dirección del EESS,935398247,396,396,396
GOBIERNO REGIONAL,1723,CENTRO DE SALUD BUENAVISTA,ANCASH,CASMA,BUENA VISTA ALTA,I-3,-78.20686282,-9.43233254,07:00 AM – 07:00 PM,Dirección del EESS,935398248,397,397,397
GOBIERNO REGIONAL,1728,CENTRO DE SALUD YAUTAN,ANCASH,CASMA,YAUTAN,I-4,-77.99678631,-9.51195923,07:00 AM – 07:00 PM,Dirección del EESS,935398249,398,398,398
GOBIERNO REGIONAL,1734,CENTRO DE SALUD PARIACOTO,ANCASH,HUARAZ,PARIACOTO,I-4,-77.89104101,-9.55940277,07:00 AM – 07:00 PM,Dirección del EESS,935398250,399,399,399
GOBIERNO REGIONAL,1738,CENTRO DE SALUD QUILLO,ANCASH,YUNGAY,QUILLO,I-4,-78.0410111,-9.32791209,07:00 AM – 07:00 PM,Dirección del EESS,935398251,400,400,400
GOBIERNO REGIONAL,1739,PUESTO DE SALUD HUACHO,ANCASH,YUNGAY,QUILLO,I-2,-77.9457724,-9.30474948,07:00 AM – 07:00 PM,Dirección del EESS,935398252,401,401,401
GOBIERNO REGIONAL,1741,HOSPITAL DE APOYO HUARMEY,ANCASH,HUARMEY,HUARMEY,II-1,-78.15571838,-10.06808931,07:00 AM – 07:00 PM,Dirección del EESS,935398253,402,402,402
GOBIERNO REGIONAL,1742,PUESTO DE SALUD PUERTO HUARMEY,ANCASH,HUARMEY,HUARMEY,I-2,-78.16181262,-10.09821629,07:00 AM – 07:00 PM,Dirección del EESS,935398254,403,403,403
GOBIERNO REGIONAL,1743,PUESTO DE SALUD CULEBRAS,ANCASH,HUARMEY,CULEBRAS,I-2,-78.22187428,-9.95004783,07:00 AM – 07:00 PM,Dirección del EESS,935398255,404,404,404
GOBIERNO REGIONAL,1744,PUESTO DE SALUD LA VICTORIA,ANCASH,HUARMEY,HUARMEY,I-1,-78.15981442,-10.0554619,07:00 AM – 07:00 PM,Dirección del EESS,935398256,405,405,405
GOBIERNO REGIONAL,1751,PUESTO DE SALUD HUAMBA,ANCASH,HUARMEY,HUARMEY,I-1,-77.85691182,-9.96520013,07:00 AM – 07:00 PM,Dirección del EESS,935398257,406,406,406
GOBIERNO REGIONAL,1755,PUESTO DE SALUD OCROS,ANCASH,OCROS,OCROS,I-2,-77.39904499,-10.40471684,07:00 AM – 07:00 PM,Dirección del EESS,935398258,407,407,407
GOBIERNO REGIONAL,1772,PUESTO DE SALUD HUAYLLAN,ANCASH,POMABAMBA,HUAYLLAN,I-1,-77.43869315,-8.84999763,07:00 AM – 07:00 PM,Dirección del EESS,935398259,408,408,408
GOBIERNO REGIONAL,1775,CENTRO DE SALUD PAROBAMBA VIEJO,ANCASH,POMABAMBA,PAROBAMBA,I-4,-77.42655666,-8.6969451,07:00 AM – 07:00 PM,Dirección del EESS,935398260,409,409,409
GOBIERNO REGIONAL,1783,CENTRO DE SALUD PISCOBAMBA,ANCASH,MARISCAL LUZURIAGA,PISCOBAMBA,I-4,-77.35324609,-8.86597717,07:00 AM – 07:00 PM,Dirección del EESS,935398261,410,410,410
GOBIERNO REGIONAL,1785,PUESTO DE SALUD CASCA,ANCASH,MARISCAL LUZURIAGA,CASCA,I-2,-77.39805931,-8.85614051,07:00 AM – 07:00 PM,Dirección del EESS,935398262,411,411,411
GOBIERNO REGIONAL,1786,PUESTO DE SALUD PAMPACHACRA,ANCASH,MARISCAL LUZURIAGA,ELEAZAR GUZMAN BARRON,I-1,-77.2465663,-8.89879237,07:00 AM – 07:00 PM,Dirección del EESS,935398263,412,412,412
GOBIERNO REGIONAL,1791,PUESTO DE SALUD SECCHA,ANCASH,MARISCAL LUZURIAGA,LUCMA,I-1,-77.44644685,-8.91709666,07:00 AM – 07:00 PM,Dirección del EESS,935398264,413,413,413
GOBIERNO REGIONAL,1793,PUESTO DE SALUD SANASHGAN,ANCASH,MARISCAL LUZURIAGA,FIDEL OLIVAS ESCUDERO,I-1,-77.27883161,-8.80434354,07:00 AM – 07:00 PM,Dirección del EESS,935398265,414,414,414
GOBIERNO REGIONAL,1795,HOSPITAL DE APOYO SIHUAS,ANCASH,SIHUAS,SIHUAS,II-1,-77.63220171,-8.55279302,07:00 AM – 07:00 PM,Dirección del EESS,935398266,415,415,415
GOBIERNO REGIONAL,1796,PUESTO DE SALUD RAGASH,ANCASH,SIHUAS,RAGASH,I-1,-77.66522333,-8.532645,07:00 AM – 07:00 PM,Dirección del EESS,935398267,416,416,416
GOBIERNO REGIONAL,1806,CENTRO DE SALUD QUICHES,ANCASH,SIHUAS,QUICHES,I-3,-77.49216395,-8.39520558,07:00 AM – 07:00 PM,Dirección del EESS,935398268,417,417,417
GOBIERNO REGIONAL,1810,PUESTO DE SALUD CHINCHOBAMBA,ANCASH,SIHUAS,SAN JUAN,I-1,-77.57320127,-8.6731269,07:00 AM – 07:00 PM,Dirección del EESS,935398269,418,418,418
GOBIERNO REGIONAL,1812,PUESTO DE SALUD UMBE,ANCASH,SIHUAS,SICSIBAMBA,I-1,-77.53485867,-8.62348453,07:00 AM – 07:00 PM,Dirección del EESS,935398270,419,419,419
GOBIERNO REGIONAL,1813,HOSPITAL DE APOYO HUARI,ANCASH,HUARI,HUARI,II-1,-77.16777014,-9.34198474,07:00 AM – 07:00 PM,Dirección del EESS,935398271,420,420,420
GOBIERNO REGIONAL,1824,CENTRO DE SALUD CHAVIN,ANCASH,HUARI,CHAVIN DE HUANTAR,I-3,-77.17770317,-9.58596713,07:00 AM – 07:00 PM,Dirección del EESS,935398272,421,421,421
GOBIERNO REGIONAL,1836,CENTRO DE SALUD RAHUAPAMPA,ANCASH,HUARI,RAHUAPAMPA,I-2,-77.07903375,-9.36005443,07:00 AM – 07:00 PM,Dirección del EESS,935398273,422,422,422
GOBIERNO REGIONAL,1847,CENTRO DE SALUD LLAMELLIN,ANCASH,ANTONIO RAIMONDI,LLAMELLIN,I-3,-77.01617315,-9.10799941,07:00 AM – 07:00 PM,Dirección del EESS,935398274,423,423,423
GOBIERNO REGIONAL,1850,PUESTO DE SALUD CHACCHO,ANCASH,ANTONIO RAIMONDI,CHACCHO,I-1,-77.05671251,-9.05990767,07:00 AM – 07:00 PM,Dirección del EESS,935398275,424,424,424
GOBIERNO REGIONAL,1856,CENTRO DE SALUD SAN LUIS,ANCASH,CARLOS FERMIN FITZCARRALD,SAN LUIS,I-3,-77.33039351,-9.09554831,07:00 AM – 07:00 PM,Dirección del EESS,935398276,425,425,425
GOBIERNO REGIONAL,1861,CENTRO DE SALUD YAUYA,ANCASH,CARLOS FERMIN FITZCARRALD,YAUYA,I-3,-77.2913488,-8.98645108,07:00 AM – 07:00 PM,Dirección del EESS,935398277,426,426,426
GOBIERNO REGIONAL,1863,CENTRO DE SALUD SAN NICOLAS,ANCASH,CARLOS FERMIN FITZCARRALD,SAN NICOLAS,I-4,-77.1851262,-8.98064624,07:00 AM – 07:00 PM,Dirección del EESS,935398278,427,427,427
GOBIERNO REGIONAL,1866,CLAS CORRALES,TUMBES,TUMBES,CORRALES,I-4,-80.48188319,-3.60064797,07:00 AM – 07:00 PM,Dirección del EESS,935398279,428,428,428
GOBIERNO REGIONAL,1867,SAN ISIDRO,TUMBES,TUMBES,CORRALES,I-2,-80.51074262,-3.61316139,07:00 AM – 07:00 PM,Dirección del EESS,935398280,429,429,429
GOBIERNO REGIONAL,1869,CLAS LA CRUZ,TUMBES,TUMBES,LA CRUZ,I-3,-80.59322733,-3.63820898,07:00 AM – 07:00 PM,Dirección del EESS,935398281,430,430,430
GOBIERNO REGIONAL,1870,SAN JACINTO,TUMBES,TUMBES,SAN JACINTO,I-3,-80.44800709,-3.64215002,07:00 AM – 07:00 PM,Dirección del EESS,935398282,431,431,431
GOBIERNO REGIONAL,1873,CASA BLANQUEADA,TUMBES,TUMBES,SAN JACINTO,I-2,-80.453705,-3.73461667,07:00 AM – 07:00 PM,Dirección del EESS,935398283,432,432,432
GOBIERNO REGIONAL,1875,PAMPAS DE HOSPITAL,TUMBES,TUMBES,PAMPAS DE HOSPITAL,I-3,-80.43716592,-3.69752412,07:00 AM – 07:00 PM,Dirección del EESS,935398284,433,433,433
GOBIERNO REGIONAL,1876,CABUYAL,TUMBES,TUMBES,PAMPAS DE HOSPITAL,I-2,-80.43656936,-3.71563457,07:00 AM – 07:00 PM,Dirección del EESS,935398285,434,434,434
GOBIERNO REGIONAL,1879,CLAS SAN JUAN DE LA VIRGEN,TUMBES,TUMBES,SAN JUAN DE LA VIRGEN,I-3,-80.43429013,-3.62630316,07:00 AM – 07:00 PM,Dirección del EESS,935398286,435,435,435
GOBIERNO REGIONAL,1882,PAMPA GRANDE,TUMBES,TUMBES,TUMBES,I-4,-80.42026826,-3.58217906,07:00 AM – 07:00 PM,Dirección del EESS,935398287,436,436,436
GOBIERNO REGIONAL,1883,PUERTO PIZARRO,TUMBES,TUMBES,TUMBES,I-2,-80.39182833,-3.503105,07:00 AM – 07:00 PM,Dirección del EESS,935398288,437,437,437
GOBIERNO REGIONAL,1884,CLAS ANDRES ARAUJO MORAN,TUMBES,TUMBES,TUMBES,I-3,-80.42750694,-3.55700516,07:00 AM – 07:00 PM,Dirección del EESS,935398289,438,438,438
GOBIERNO REGIONAL,1885,CLAS AGUAS VERDES,TUMBES,ZARUMILLA,AGUAS VERDES,I-3,-80.26060333,-3.48552167,07:00 AM – 07:00 PM,Dirección del EESS,935398290,439,439,439
GOBIERNO REGIONAL,1886,CUCHARETA BAJA,TUMBES,ZARUMILLA,AGUAS VERDES,I-2,-80.23880486,-3.5248506,07:00 AM – 07:00 PM,Dirección del EESS,935398291,440,440,440
GOBIERNO REGIONAL,1890,C.S MATAPALO,TUMBES,ZARUMILLA,MATAPALO,I-3,-80.19982763,-3.68242527,07:00 AM – 07:00 PM,Dirección del EESS,935398292,441,441,441
GOBIERNO REGIONAL,1891,C.S. PAPAYAL,TUMBES,ZARUMILLA,PAPAYAL,I-3,-80.23539667,-3.57233833,07:00 AM – 07:00 PM,Dirección del EESS,935398293,442,442,442
GOBIERNO REGIONAL,1892,LA PALMA,TUMBES,ZARUMILLA,PAPAYAL,I-2,-80.21510167,-3.56252667,07:00 AM – 07:00 PM,Dirección del EESS,935398294,443,443,443
GOBIERNO REGIONAL,1893,UÑA DE GATO,TUMBES,ZARUMILLA,PAPAYAL,I-2,-80.23234215,-3.53718963,07:00 AM – 07:00 PM,Dirección del EESS,935398295,444,444,444
GOBIERNO REGIONAL,1896,CENTRO DE SALUD ZARUMILLA,TUMBES,ZARUMILLA,ZARUMILLA,I-4,-80.2720286,-3.50092486,07:00 AM – 07:00 PM,Dirección del EESS,935398296,445,445,445
GOBIERNO REGIONAL,1900,ZORRITOS,TUMBES,CONTRALMIRANTE VILLAR,ZORRITOS,I-4,-80.67890552,-3.6804567,07:00 AM – 07:00 PM,Dirección del EESS,935398297,446,446,446
GOBIERNO REGIONAL,1902,CANCAS,TUMBES,CONTRALMIRANTE VILLAR,CANOAS DE PUNTA SAL,I-3,-80.94725478,-3.95202062,07:00 AM – 07:00 PM,Dirección del EESS,935398298,447,447,447
GOBIERNO REGIONAL,1908,SAÚL GARRIDO ROSILLO,TUMBES,TUMBES,TUMBES,II-1,-80.4557269,-3.56270287,07:00 AM – 07:00 PM,Dirección del EESS,935398299,448,448,448
GOBIERNO REGIONAL,1911,CENTRO DE SALUD DE AYABACA,PIURA,AYABACA,AYABACA,I-4,-79.71413952,-4.63578921,07:00 AM – 07:00 PM,Dirección del EESS,935398300,449,449,449
GOBIERNO REGIONAL,1959,PAIMAS,PIURA,AYABACA,PAIMAS,I-4,-79.94771296,-4.62478543,07:00 AM – 07:00 PM,Dirección del EESS,935398301,450,450,450
GOBIERNO REGIONAL,1977,TAMBOGRANDE,PIURA,PIURA,TAMBO GRANDE,I-4,-80.33621452,-4.92299341,07:00 AM – 07:00 PM,Dirección del EESS,935398302,451,451,451
GOBIERNO REGIONAL,2001,BELLAVISTA,PIURA,SULLANA,BELLAVISTA,I-4,-80.67170624,-4.88467601,07:00 AM – 07:00 PM,Dirección del EESS,935398303,452,452,452
GOBIERNO REGIONAL,2011,SANTA TERESITA,PIURA,SULLANA,SULLANA,I-3,-80.67758452,-4.90039906,07:00 AM – 07:00 PM,Dirección del EESS,935398304,453,453,453
GOBIERNO REGIONAL,2012,CENTRO DE SALUD VILLA PRIMAVERA,PIURA,SULLANA,SULLANA,I-3,-80.71042788,-4.90458966,07:00 AM – 07:00 PM,Dirección del EESS,935398305,454,454,454
GOBIERNO REGIONAL,2013,NUEVE DE OCTUBRE,PIURA,SULLANA,SULLANA,I-3,-80.67532486,-4.90829466,07:00 AM – 07:00 PM,Dirección del EESS,935398306,455,455,455
GOBIERNO REGIONAL,2014,EL OBRERO,PIURA,SULLANA,SULLANA,I-3,-80.68261897,-4.91041167,07:00 AM – 07:00 PM,Dirección del EESS,935398307,456,456,456
GOBIERNO REGIONAL,2016,CANAL MOCHO-CIENEG.SUR,PIURA,SULLANA,SULLANA,I-2,-80.68666785,-4.9986555,07:00 AM – 07:00 PM,Dirección del EESS,935398308,457,457,457
GOBIERNO REGIONAL,2017,NUEVO SULLANA,PIURA,SULLANA,SULLANA,I-3,-80.72258562,-4.9090594,07:00 AM – 07:00 PM,Dirección del EESS,935398309,458,458,458
GOBIERNO REGIONAL,2018,COMUNIDAD SALUDABLE,PIURA,SULLANA,SULLANA,I-3,-80.69454589,-4.90804605,07:00 AM – 07:00 PM,Dirección del EESS,935398310,459,459,459
GOBIERNO REGIONAL,2021,HOSPITAL DE APOYO II - 1 NUESTRA SEÑORA DE LAS MERCEDES - PAITA,PIURA,PAITA,PAITA,II-1,-81.09153053,-5.09081453,07:00 AM – 07:00 PM,Dirección del EESS,935398311,460,460,460
GOBIERNO REGIONAL,2029,NOMARA,PIURA,PAITA,LA HUACA,I-1,-80.88681199,-4.91462489,07:00 AM – 07:00 PM,Dirección del EESS,935398312,461,461,461
GOBIERNO REGIONAL,2042,IGNACIO ESCUDERO,PIURA,SULLANA,IGNACIO ESCUDERO,I-3,-80.87433155,-4.84724301,07:00 AM – 07:00 PM,Dirección del EESS,935398313,462,462,462
GOBIERNO REGIONAL,2073,JOSE ABELARDO QUINONES,PIURA,TALARA,PARIÑAS,I-3,-81.25540351,-4.59440595,07:00 AM – 07:00 PM,Dirección del EESS,935398314,463,463,463
GOBIERNO REGIONAL,2074,CENTRO DE SALUD TALARA II,PIURA,TALARA,PARIÑAS,I-4,-81.27209591,-4.578829,07:00 AM – 07:00 PM,Dirección del EESS,935398315,464,464,464
GOBIERNO REGIONAL,2084,HOSPITAL DE LA AMISTAD PERU - COREA SANTA ROSA II-2,PIURA,PIURA,VEINTISEIS DE OCTUBRE,II-2,-80.66560667,-5.18376667,07:00 AM – 07:00 PM,Dirección del EESS,935398316,465,465,465
GOBIERNO REGIONAL,2085,ACLAS LOS ALGARROBOS,PIURA,PIURA,PIURA,I-4,-80.64618167,-5.17499667,07:00 AM – 07:00 PM,Dirección del EESS,935398317,466,466,466
GOBIERNO REGIONAL,2086,E.S.  PACHITEA,PIURA,PIURA,PIURA,I-4,-80.63138167,-5.18635,07:00 AM – 07:00 PM,Dirección del EESS,935398318,467,467,467
GOBIERNO REGIONAL,2087,E.S.  MICAELA BASTIDAS,PIURA,PIURA,VEINTISEIS DE OCTUBRE,I-3,-80.67658167,-5.17841,07:00 AM – 07:00 PM,Dirección del EESS,935398319,468,468,468
GOBIERNO REGIONAL,2088,E.S I-4 CONSUELO DE VELASCO,PIURA,PIURA,VEINTISEIS DE OCTUBRE,I-4,-80.64476333,-5.19686,07:00 AM – 07:00 PM,Dirección del EESS,935398320,469,469,469
GOBIERNO REGIONAL,2089,C.S NUEVA ESPERANZA,PIURA,PIURA,VEINTISEIS DE OCTUBRE,I-2,-80.664085,-5.19070333,07:00 AM – 07:00 PM,Dirección del EESS,935398321,470,470,470
GOBIERNO REGIONAL,2090,E.S.  SANTA JULIA,PIURA,PIURA,VEINTISEIS DE OCTUBRE,I-4,-80.65948333,-5.191175,07:00 AM – 07:00 PM,Dirección del EESS,935398322,471,471,471
GOBIERNO REGIONAL,2091,C.S. SAN JOSE,PIURA,PIURA,VEINTISEIS DE OCTUBRE,I-3,-80.64608,-5.19252667,07:00 AM – 07:00 PM,Dirección del EESS,935398323,472,472,472
GOBIERNO REGIONAL,2092,E.S.  SAN PEDRO,PIURA,PIURA,PIURA,I-4,-80.63972667,-5.20041833,07:00 AM – 07:00 PM,Dirección del EESS,935398324,473,473,473
GOBIERNO REGIONAL,2093,E.S.  SAN SEBASTIAN,PIURA,PIURA,VEINTISEIS DE OCTUBRE,I-3,-80.681905,-5.18012333,07:00 AM – 07:00 PM,Dirección del EESS,935398325,474,474,474
GOBIERNO REGIONAL,2094,P.S VICTOR RAUL HAYA DE LA TORRE,PIURA,PIURA,PIURA,I-3,-80.63871,-5.20143333,07:00 AM – 07:00 PM,Dirección del EESS,935398326,475,475,475
GOBIERNO REGIONAL,2096,P.S LAS VEGAS DE CIENEGUILLO,PIURA,PIURA,PIURA,I-2,-80.69644298,-5.04381023,07:00 AM – 07:00 PM,Dirección del EESS,935398327,476,476,476
GOBIERNO REGIONAL,2100,E.S.  CASTILLA,PIURA,PIURA,CASTILLA,I-4,-80.619265,-5.198285,07:00 AM – 07:00 PM,Dirección del EESS,935398328,477,477,477
GOBIERNO REGIONAL,2101,C.S.  EL INDIO,PIURA,PIURA,CASTILLA,I-3,-80.62078207,-5.22462895,07:00 AM – 07:00 PM,Dirección del EESS,935398329,478,478,478
GOBIERNO REGIONAL,2102,E.S.  TACALA,PIURA,PIURA,CASTILLA,I-3,-80.59778204,-5.18695161,07:00 AM – 07:00 PM,Dirección del EESS,935398330,479,479,479
GOBIERNO REGIONAL,2104,C.S CHICLAYITO,PIURA,PIURA,CASTILLA,I-3,-80.62727825,-5.22457051,07:00 AM – 07:00 PM,Dirección del EESS,935398331,480,480,480
GOBIERNO REGIONAL,2105,E.S.  MARIA GORETTI,PIURA,PIURA,CASTILLA,I-3,-80.60969584,-5.19064612,07:00 AM – 07:00 PM,Dirección del EESS,935398332,481,481,481
GOBIERNO REGIONAL,2108,E.S.  LA OBRILLA,PIURA,PIURA,CASTILLA,I-1,-80.57436167,-4.98478167,07:00 AM – 07:00 PM,Dirección del EESS,935398333,482,482,482
GOBIERNO REGIONAL,2109,P.S. CHAPAIRA,PIURA,PIURA,CASTILLA,I-2,-80.604545,-5.12353,07:00 AM – 07:00 PM,Dirección del EESS,935398334,483,483,483
GOBIERNO REGIONAL,2111,E.S.  CRUZ DE CAÑA,PIURA,PIURA,CASTILLA,I-1,-80.39285833,-5.14710167,07:00 AM – 07:00 PM,Dirección del EESS,935398335,484,484,484
GOBIERNO REGIONAL,2112,CENTRO DE SALUD MATERNO INFANTIL-CATACAOS,PIURA,PIURA,CATACAOS,I-4,-80.67195,-5.26556333,07:00 AM – 07:00 PM,Dirección del EESS,935398336,485,485,485
GOBIERNO REGIONAL,2113,E.S.  PEDREGAL GRANDE,PIURA,PIURA,CATACAOS,I-2,-80.68416167,-5.30830667,07:00 AM – 07:00 PM,Dirección del EESS,935398337,486,486,486
GOBIERNO REGIONAL,2117,P.S LA LEGUA,PIURA,PIURA,CATACAOS,I-2,-80.66019072,-5.23618965,07:00 AM – 07:00 PM,Dirección del EESS,935398338,487,487,487
GOBIERNO REGIONAL,2124,C.S LA ARENA,PIURA,PIURA,LA ARENA,I-3,-80.71108456,-5.3444845,07:00 AM – 07:00 PM,Dirección del EESS,935398339,488,488,488
GOBIERNO REGIONAL,2125,E.S. CASA GRANDE,PIURA,PIURA,LA ARENA,I-2,-80.75760108,-5.31722671,07:00 AM – 07:00 PM,Dirección del EESS,935398340,489,489,489
GOBIERNO REGIONAL,2129,E.S.  CHATITO,PIURA,PIURA,LA ARENA,I-2,-80.69732384,-5.3799084,07:00 AM – 07:00 PM,Dirección del EESS,935398341,490,490,490
GOBIERNO REGIONAL,2132,E.S.  LA UNION,PIURA,PIURA,LA UNION,I-4,-80.74872008,-5.40328463,07:00 AM – 07:00 PM,Dirección del EESS,935398342,491,491,491
GOBIERNO REGIONAL,2137,E.S. I-3 CURA MORI,PIURA,PIURA,CURA MORI,I-3,-80.66608,-5.32323167,07:00 AM – 07:00 PM,Dirección del EESS,935398343,492,492,492
GOBIERNO REGIONAL,2141,E.S.  EL TALLAN,PIURA,PIURA,EL TALLAN,I-2,-80.67939561,-5.40942653,07:00 AM – 07:00 PM,Dirección del EESS,935398344,493,493,493
GOBIERNO REGIONAL,2142,P.S NVO. TALLAN,PIURA,PIURA,EL TALLAN,I-2,-80.60982333,-5.43107667,07:00 AM – 07:00 PM,Dirección del EESS,935398345,494,494,494
GOBIERNO REGIONAL,2143,E.S I-4 SECHURA,PIURA,SECHURA,SECHURA,I-4,-80.8213624,-5.5605734,07:00 AM – 07:00 PM,Dirección del EESS,935398346,495,495,495
GOBIERNO REGIONAL,2145,E.S.  PARACHIQUE,PIURA,SECHURA,SECHURA,I-2,-80.86415738,-5.76387609,07:00 AM – 07:00 PM,Dirección del EESS,935398347,496,496,496
GOBIERNO REGIONAL,2151,C.S VICE,PIURA,SECHURA,VICE,I-3,-80.77525418,-5.41666574,07:00 AM – 07:00 PM,Dirección del EESS,935398348,497,497,497
GOBIERNO REGIONAL,2153,E.S.   LETIRA,PIURA,SECHURA,VICE,I-2,-80.80669479,-5.44122677,07:00 AM – 07:00 PM,Dirección del EESS,935398349,498,498,498
GOBIERNO REGIONAL,2154,E.S.  LA TORTUGA,PIURA,SECHURA,VICE,I-2,-81.11954288,-5.27963619,07:00 AM – 07:00 PM,Dirección del EESS,935398350,499,499,499
GOBIERNO REGIONAL,2157,E.S. BELLAVISTA,PIURA,SECHURA,BELLAVISTA DE LA UNION,I-3,-80.75432088,-5.43724257,07:00 AM – 07:00 PM,Dirección del EESS,935398351,500,500,500
GOBIERNO REGIONAL,2159,E.S.  BERNAL,PIURA,SECHURA,BERNAL,I-4,-80.745055,-5.464895,07:00 AM – 07:00 PM,Dirección del EESS,935398352,501,501,501
GOBIERNO REGIONAL,2160,E.S. CRISTO NOS VALGA,PIURA,SECHURA,CRISTO NOS VALGA,I-2,-80.74033833,-5.49183,07:00 AM – 07:00 PM,Dirección del EESS,935398353,502,502,502
GOBIERNO REGIONAL,2161,E.S  II-1  HOSPITAL  CHULUCANAS,PIURA,MORROPON,CHULUCANAS,II-1,-80.17076507,-5.10300073,07:00 AM – 07:00 PM,Dirección del EESS,935398354,503,503,503
GOBIERNO REGIONAL,2164,E.S. KM 50,PIURA,MORROPON,CHULUCANAS,I-3,-80.184845,-5.16838,07:00 AM – 07:00 PM,Dirección del EESS,935398355,504,504,504
GOBIERNO REGIONAL,2165,P.S PACCHA,PIURA,MORROPON,CHULUCANAS,I-3,-80.22161667,-5.01503167,07:00 AM – 07:00 PM,Dirección del EESS,935398356,505,505,505
GOBIERNO REGIONAL,2168,E.S   I- 3  YAPATERA,PIURA,MORROPON,CHULUCANAS,I-3,-80.13666167,-5.05879833,07:00 AM – 07:00 PM,Dirección del EESS,935398357,506,506,506
GOBIERNO REGIONAL,2169,P.S SOL SOL,PIURA,MORROPON,CHULUCANAS,I-1,-80.18827167,-5.03521833,07:00 AM – 07:00 PM,Dirección del EESS,935398358,507,507,507
GOBIERNO REGIONAL,2171,E.S. FRÍAS,PIURA,AYABACA,FRIAS,I-3,-79.94290823,-4.93465422,07:00 AM – 07:00 PM,Dirección del EESS,935398359,508,508,508
GOBIERNO REGIONAL,2178,ESTABLECIMIENTO DE SALUD LA MATANZA.,PIURA,MORROPON,LA MATANZA,I-3,-80.09033717,-5.20890625,07:00 AM – 07:00 PM,Dirección del EESS,935398360,509,509,509
GOBIERNO REGIONAL,2182,ESTABLECIMIENTO DE SALUD MORROPON,PIURA,MORROPON,MORROPON,I-4,-79.96751833,-5.18913,07:00 AM – 07:00 PM,Dirección del EESS,935398361,510,510,510
GOBIERNO REGIONAL,2188,E.S.  BUENOS AIRES,PIURA,MORROPON,BUENOS AIRES,I-4,-79.96803358,-5.26550229,07:00 AM – 07:00 PM,Dirección del EESS,935398362,511,511,511
GOBIERNO REGIONAL,2192,ESTABLECIMIENTO DE SALUD YAMANGO.,PIURA,MORROPON,YAMANGO,I-3,-79.75112774,-5.18249125,07:00 AM – 07:00 PM,Dirección del EESS,935398363,512,512,512
GOBIERNO REGIONAL,2202,ESTABLECIMIENTO DE SALUD CHALACO.,PIURA,MORROPON,CHALACO,I-4,-79.79485333,-5.04342167,07:00 AM – 07:00 PM,Dirección del EESS,935398364,513,513,513
GOBIERNO REGIONAL,2207,ESTABLECIMIENTO DE SALUD PACAIPAMPA.,PIURA,AYABACA,PACAIPAMPA,I-4,-79.66840617,-4.99439148,07:00 AM – 07:00 PM,Dirección del EESS,935398365,514,514,514
GOBIERNO REGIONAL,2215,ESTABLECIMIENTO DE SALUD SANTO DOMINGO,PIURA,MORROPON,SANTO DOMINGO,I-4,-79.87648227,-5.03187319,07:00 AM – 07:00 PM,Dirección del EESS,935398366,515,515,515
GOBIERNO REGIONAL,2222,C.S SALITRAL,PIURA,MORROPON,SALITRAL,I-4,-79.83256594,-5.34185995,07:00 AM – 07:00 PM,Dirección del EESS,935398367,516,516,516
GOBIERNO REGIONAL,2228,ESTABLECIMIENTO DE SALUD SAN JUAN DE BIGOTE,PIURA,MORROPON,SAN JUAN DE BIGOTE,I-3,-79.78645976,-5.31785386,07:00 AM – 07:00 PM,Dirección del EESS,935398368,517,517,517
GOBIERNO REGIONAL,2232,C.S EL TUNAL,PIURA,HUANCABAMBA,LALAQUIZ,I-4,-79.68042816,-5.21492075,07:00 AM – 07:00 PM,Dirección del EESS,935398369,518,518,518
GOBIERNO REGIONAL,2238,ESTABLECIMIENTO DE SALUD CANCHAQUE.,PIURA,HUANCABAMBA,CANCHAQUE,I-4,-79.6032604,-5.37528402,07:00 AM – 07:00 PM,Dirección del EESS,935398370,519,519,519
GOBIERNO REGIONAL,2245,ESTABLECIMIENTO DE SALUD EL FAIQUE.,PIURA,HUANCABAMBA,SAN MIGUEL DE EL FAIQUE,I-4,-79.60559835,-5.40134024,07:00 AM – 07:00 PM,Dirección del EESS,935398371,520,520,520
GOBIERNO REGIONAL,2247,P.S EL HIGUERON,PIURA,HUANCABAMBA,SAN MIGUEL DE EL FAIQUE,I-2,-79.60298388,-5.45553128,07:00 AM – 07:00 PM,Dirección del EESS,935398372,521,521,521
GOBIERNO REGIONAL,2250,ESTABLECIMIENTO DE SALUD HUANCABAMBA (JESUS GUERRERO CRUZ),PIURA,HUANCABAMBA,HUANCABAMBA,I-4,-79.45501667,-5.2477,07:00 AM – 07:00 PM,Dirección del EESS,935398373,522,522,522
GOBIERNO REGIONAL,2252,E.S I-2 CASCAMACHE,PIURA,HUANCABAMBA,HUANCABAMBA,I-2,-79.51355007,-5.24011168,07:00 AM – 07:00 PM,Dirección del EESS,935398374,523,523,523
GOBIERNO REGIONAL,2255,E.S. ÑANGALI,PIURA,HUANCABAMBA,HUANCABAMBA,I-2,-79.45056617,-5.17508626,07:00 AM – 07:00 PM,Dirección del EESS,935398375,524,524,524
GOBIERNO REGIONAL,2257,ESTABLECIMIENTO DE SALUD SAPALACHE.,PIURA,HUANCABAMBA,EL CARMEN DE LA FRONTERA,I-3,-79.42767067,-5.14722043,07:00 AM – 07:00 PM,Dirección del EESS,935398376,525,525,525
GOBIERNO REGIONAL,2258,P.S TALANEO,PIURA,HUANCABAMBA,EL CARMEN DE LA FRONTERA,I-2,-79.53601537,-5.06089646,07:00 AM – 07:00 PM,Dirección del EESS,935398377,526,526,526
GOBIERNO REGIONAL,2262,ESTABLECIMIENTO DE SALUD SONDOR.,PIURA,HUANCABAMBA,SONDOR,I-3,-79.41194667,-5.31517833,07:00 AM – 07:00 PM,Dirección del EESS,935398378,527,527,527
GOBIERNO REGIONAL,2265,E.S.  TULUCE,PIURA,HUANCABAMBA,SONDOR,I-2,-79.350205,-5.47108333,07:00 AM – 07:00 PM,Dirección del EESS,935398379,528,528,528
GOBIERNO REGIONAL,2266,ESTABLECIMIENTO DE SALUD SONDORILLO,PIURA,HUANCABAMBA,SONDORILLO,I-3,-79.42736403,-5.33798482,07:00 AM – 07:00 PM,Dirección del EESS,935398380,529,529,529
GOBIERNO REGIONAL,2270,E.S.  HUARMACA,PIURA,HUANCABAMBA,HUARMACA,I-4,-79.52119013,-5.5873218,07:00 AM – 07:00 PM,Dirección del EESS,935398381,530,530,530
GOBIERNO REGIONAL,2289,HOSPITAL DE APOYO DEPARTAMENTAL CUSCO,CUSCO,CUSCO,CUSCO,III-1,-71.95571333,-13.52314833,07:00 AM – 07:00 PM,Dirección del EESS,935398382,531,531,531
GOBIERNO REGIONAL,2291,SIETE CUARTONES,CUSCO,CUSCO,CUSCO,I-3,-71.98250368,-13.5164434,07:00 AM – 07:00 PM,Dirección del EESS,935398383,532,532,532
GOBIERNO REGIONAL,2293,MIRAFLORES,CUSCO,CUSCO,CUSCO,I-2,-71.99757387,-13.50752366,07:00 AM – 07:00 PM,Dirección del EESS,935398384,533,533,533
GOBIERNO REGIONAL,2294,PICCHU LA RINCONADA,CUSCO,CUSCO,CUSCO,I-3,-71.98890191,-13.51640697,07:00 AM – 07:00 PM,Dirección del EESS,935398385,534,534,534
GOBIERNO REGIONAL,2297,CCORCCA,CUSCO,CUSCO,CCORCA,I-2,-72.05887132,-13.58384422,07:00 AM – 07:00 PM,Dirección del EESS,935398386,535,535,535
GOBIERNO REGIONAL,2300,SAN JERONIMO,CUSCO,CUSCO,SAN JERONIMO,I-4,-71.88002087,-13.54884632,07:00 AM – 07:00 PM,Dirección del EESS,935398387,536,536,536
GOBIERNO REGIONAL,2301,SAN SEBASTIAN,CUSCO,CUSCO,SAN SEBASTIAN,I-3,-71.92948187,-13.53261133,07:00 AM – 07:00 PM,Dirección del EESS,935398388,537,537,537
GOBIERNO REGIONAL,2302,CCORAO,CUSCO,CUSCO,SAN SEBASTIAN,I-2,-71.92394833,-13.476915,07:00 AM – 07:00 PM,Dirección del EESS,935398389,538,538,538
GOBIERNO REGIONAL,2303,SANTA ROSA,CUSCO,CUSCO,SAN SEBASTIAN,I-3,-71.92064081,-13.53262938,07:00 AM – 07:00 PM,Dirección del EESS,935398390,539,539,539
GOBIERNO REGIONAL,2305,ANTONIO LORENA DEL CUSCO,CUSCO,CUSCO,SANTIAGO,III-1,-71.97558395,-13.53083729,07:00 AM – 07:00 PM,Dirección del EESS,935398391,540,540,540
GOBIERNO REGIONAL,2306,BELEMPAMPA,CUSCO,CUSCO,SANTIAGO,I-4,-71.97891022,-13.5254705,07:00 AM – 07:00 PM,Dirección del EESS,935398392,541,541,541
GOBIERNO REGIONAL,2308,ZARZUELA ALTA,CUSCO,CUSCO,SANTIAGO,I-3,-71.98266459,-13.53175787,07:00 AM – 07:00 PM,Dirección del EESS,935398393,542,542,542
GOBIERNO REGIONAL,2309,DIGNIDAD NACIONAL,CUSCO,CUSCO,SANTIAGO,I-3,-71.98872213,-13.52852007,07:00 AM – 07:00 PM,Dirección del EESS,935398394,543,543,543
GOBIERNO REGIONAL,2315,WANCHAQ,CUSCO,CUSCO,WANCHAQ,I-3,-71.97065425,-13.5225504,07:00 AM – 07:00 PM,Dirección del EESS,935398395,544,544,544
GOBIERNO REGIONAL,2316,TTIO,CUSCO,CUSCO,WANCHAQ,I-3,-71.95977696,-13.53236065,07:00 AM – 07:00 PM,Dirección del EESS,935398396,545,545,545
GOBIERNO REGIONAL,2317,ACOMAYO,CUSCO,ACOMAYO,ACOMAYO,I-4,-71.68282833,-13.916675,07:00 AM – 07:00 PM,Dirección del EESS,935398397,546,546,546
GOBIERNO REGIONAL,2321,POMACANCHI,CUSCO,ACOMAYO,POMACANCHI,I-4,-71.56901833,-14.03317667,07:00 AM – 07:00 PM,Dirección del EESS,935398398,547,547,547
GOBIERNO REGIONAL,2326,ANTA,CUSCO,ANTA,ANTA,I-4,-72.14629207,-13.46247723,07:00 AM – 07:00 PM,Dirección del EESS,935398399,548,548,548
GOBIERNO REGIONAL,2330,ANCAHUASI,CUSCO,ANTA,ANCAHUASI,I-3,-72.30079513,-13.45640875,07:00 AM – 07:00 PM,Dirección del EESS,935398400,549,549,549
GOBIERNO REGIONAL,2331,CACHIMAYO,CUSCO,ANTA,CACHIMAYO,I-2,-72.06550477,-13.47985829,07:00 AM – 07:00 PM,Dirección del EESS,935398401,550,550,550
GOBIERNO REGIONAL,2333,HUAROCONDO,CUSCO,ANTA,HUAROCONDO,I-2,-72.20528441,-13.41621274,07:00 AM – 07:00 PM,Dirección del EESS,935398402,551,551,551
GOBIERNO REGIONAL,2336,LIMATAMBO,CUSCO,ANTA,LIMATAMBO,I-4,-72.44248445,-13.47721288,07:00 AM – 07:00 PM,Dirección del EESS,935398403,552,552,552
GOBIERNO REGIONAL,2338,MOLLEPATA,CUSCO,ANTA,MOLLEPATA,I-3,-72.52748252,-13.51035681,07:00 AM – 07:00 PM,Dirección del EESS,935398404,553,553,553
GOBIERNO REGIONAL,2341,CALCA,CUSCO,CALCA,CALCA,I-4,-71.95949633,-13.32199764,07:00 AM – 07:00 PM,Dirección del EESS,935398405,554,554,554
GOBIERNO REGIONAL,2348,PISAC,CUSCO,CALCA,PISAC,I-4,-71.8527449,-13.4225552,07:00 AM – 07:00 PM,Dirección del EESS,935398406,555,555,555
GOBIERNO REGIONAL,2359,PUTUCUSI,CUSCO,CALCA,YANATILE,I-3,-72.49016601,-12.61651334,07:00 AM – 07:00 PM,Dirección del EESS,935398407,556,556,556
GOBIERNO REGIONAL,2364,YANAOCA,CUSCO,CANAS,YANAOCA,I-4,-71.4297373,-14.2221342,07:00 AM – 07:00 PM,Dirección del EESS,935398408,557,557,557
GOBIERNO REGIONAL,2371,LAYO,CUSCO,CANAS,LAYO,I-3,-71.15590908,-14.49606087,07:00 AM – 07:00 PM,Dirección del EESS,935398409,558,558,558
GOBIERNO REGIONAL,2378,SICUANI,CUSCO,CANCHIS,SICUANI,II-1,-71.22877733,-14.26562521,07:00 AM – 07:00 PM,Dirección del EESS,935398410,559,559,559
GOBIERNO REGIONAL,2380,TECHO OBRERO,CUSCO,CANCHIS,SICUANI,I-4,-71.22453318,-14.28850981,07:00 AM – 07:00 PM,Dirección del EESS,935398411,560,560,560
GOBIERNO REGIONAL,2386,COMBAPATA CANCHIS,CUSCO,CANCHIS,COMBAPATA,I-4,-71.43343619,-14.10087739,07:00 AM – 07:00 PM,Dirección del EESS,935398412,561,561,561
GOBIERNO REGIONAL,2388,MARANGANI,CUSCO,CANCHIS,MARANGANI,I-3,-71.1695393,-14.35401744,07:00 AM – 07:00 PM,Dirección del EESS,935398413,562,562,562
GOBIERNO REGIONAL,2397,TINTA,CUSCO,CANCHIS,TINTA,I-3,-71.40249028,-14.14122525,07:00 AM – 07:00 PM,Dirección del EESS,935398414,563,563,563
GOBIERNO REGIONAL,2398,SANTO TOMAS,CUSCO,CHUMBIVILCAS,SANTO TOMAS,II-1,-72.08461227,-14.44840483,07:00 AM – 07:00 PM,Dirección del EESS,935398415,564,564,564
GOBIERNO REGIONAL,2399,PULPERA,CUSCO,CHUMBIVILCAS,SANTO TOMAS,I-2,-72.01547833,-14.64520833,07:00 AM – 07:00 PM,Dirección del EESS,935398416,565,565,565
GOBIERNO REGIONAL,2400,ALHUACCHULLO,CUSCO,CHUMBIVILCAS,SANTO TOMAS,I-2,-72.14924333,-14.63429,07:00 AM – 07:00 PM,Dirección del EESS,935398417,566,566,566
GOBIERNO REGIONAL,2401,CCAPACMARCA,CUSCO,CHUMBIVILCAS,CAPACMARCA,I-3,-71.99634189,-14.00794633,07:00 AM – 07:00 PM,Dirección del EESS,935398418,567,567,567
GOBIERNO REGIONAL,2402,CHAMACA,CUSCO,CHUMBIVILCAS,CHAMACA,I-2,-71.848395,-14.30350333,07:00 AM – 07:00 PM,Dirección del EESS,935398419,568,568,568
GOBIERNO REGIONAL,2404,COLQUEMARCA,CUSCO,CHUMBIVILCAS,COLQUEMARCA,I-3,-72.04038335,-14.28762295,07:00 AM – 07:00 PM,Dirección del EESS,935398420,569,569,569
GOBIERNO REGIONAL,2406,LIVITACA,CUSCO,CHUMBIVILCAS,LIVITACA,I-4,-71.68845333,-14.31234,07:00 AM – 07:00 PM,Dirección del EESS,935398421,570,570,570
GOBIERNO REGIONAL,2407,LLUSCO,CUSCO,CHUMBIVILCAS,LLUSCO,I-2,-72.116025,-14.337375,07:00 AM – 07:00 PM,Dirección del EESS,935398422,571,571,571
GOBIERNO REGIONAL,2408,QUIÑOTA,CUSCO,CHUMBIVILCAS,QUIÑOTA,I-2,-72.13756167,-14.31123167,07:00 AM – 07:00 PM,Dirección del EESS,935398423,572,572,572
GOBIERNO REGIONAL,2409,VELILLE,CUSCO,CHUMBIVILCAS,VELILLE,I-3,-71.88589333,-14.504875,07:00 AM – 07:00 PM,Dirección del EESS,935398424,573,573,573
GOBIERNO REGIONAL,2410,YAURI,CUSCO,ESPINAR,ESPINAR,I-4,-71.40414085,-14.79047835,07:00 AM – 07:00 PM,Dirección del EESS,935398425,574,574,574
GOBIERNO REGIONAL,2421,QUILLABAMBA,CUSCO,LA CONVENCION,SANTA ANA,II-1,-72.69071169,-12.86456688,07:00 AM – 07:00 PM,Dirección del EESS,935398426,575,575,575
GOBIERNO REGIONAL,2426,KIRIGUETI,CUSCO,LA CONVENCION,MEGANTONI,I-3,-73.13004096,-11.57219645,07:00 AM – 07:00 PM,Dirección del EESS,935398427,576,576,576
GOBIERNO REGIONAL,2427,KITENI,CUSCO,LA CONVENCION,ECHARATE,I-4,-73.04725009,-12.64774881,07:00 AM – 07:00 PM,Dirección del EESS,935398428,577,577,577
GOBIERNO REGIONAL,2439,PALMA REAL,CUSCO,LA CONVENCION,ECHARATE,I-4,-72.69179833,-12.62712833,07:00 AM – 07:00 PM,Dirección del EESS,935398429,578,578,578
GOBIERNO REGIONAL,2448,KAMISEA,CUSCO,LA CONVENCION,MEGANTONI,I-4,-72.94518369,-11.71830949,07:00 AM – 07:00 PM,Dirección del EESS,935398430,579,579,579
GOBIERNO REGIONAL,2458,MARANURA,CUSCO,LA CONVENCION,MARANURA,I-4,-72.66293333,-12.96355667,07:00 AM – 07:00 PM,Dirección del EESS,935398431,580,580,580
GOBIERNO REGIONAL,2465,QUELLOUNO,CUSCO,LA CONVENCION,QUELLOUNO,I-4,-72.55913,-12.63569,07:00 AM – 07:00 PM,Dirección del EESS,935398432,581,581,581
GOBIERNO REGIONAL,2469,SAN JUAN DE KIMBIRI-VRAEM,CUSCO,LA CONVENCION,KIMBIRI,II-E,-73.79299422,-12.61694142,07:00 AM – 07:00 PM,Dirección del EESS,935398433,582,582,582
GOBIERNO REGIONAL,2470,CHIRUMPIARI,CUSCO,LA CONVENCION,KIMBIRI,I-2,-73.60432598,-12.80590279,07:00 AM – 07:00 PM,Dirección del EESS,935398434,583,583,583
GOBIERNO REGIONAL,2471,LOBO TAHUANTINSUYO,CUSCO,LA CONVENCION,KIMBIRI,I-3,-73.6208954,-12.79467048,07:00 AM – 07:00 PM,Dirección del EESS,935398435,584,584,584
GOBIERNO REGIONAL,2480,PUCYURA,CUSCO,LA CONVENCION,VILCABAMBA,I-4,-72.9332047,-13.09184291,07:00 AM – 07:00 PM,Dirección del EESS,935398436,585,585,585
GOBIERNO REGIONAL,2485,PACCAYBAMBA,CUSCO,LA CONVENCION,INKAWASI,I-1,-73.26404332,-13.29102663,07:00 AM – 07:00 PM,Dirección del EESS,935398437,586,586,586
GOBIERNO REGIONAL,2494,PICHARI,CUSCO,LA CONVENCION,PICHARI,I-4,-73.829205,-12.52228,07:00 AM – 07:00 PM,Dirección del EESS,935398438,587,587,587
GOBIERNO REGIONAL,2495,MANTARO,CUSCO,LA CONVENCION,PICHARI,I-3,-73.93921227,-12.32264722,07:00 AM – 07:00 PM,Dirección del EESS,935398439,588,588,588
GOBIERNO REGIONAL,2499,PARURO,CUSCO,PARURO,PARURO,I-4,-71.84538813,-13.76483505,07:00 AM – 07:00 PM,Dirección del EESS,935398440,589,589,589
GOBIERNO REGIONAL,2500,ACCHA,CUSCO,PARURO,ACCHA,I-3,-71.82950114,-13.96840757,07:00 AM – 07:00 PM,Dirección del EESS,935398441,590,590,590
GOBIERNO REGIONAL,2509,YAURISQUE,CUSCO,PARURO,YAURISQUE,I-3,-71.92010905,-13.66579468,07:00 AM – 07:00 PM,Dirección del EESS,935398442,591,591,591
GOBIERNO REGIONAL,2510,PAUCARTAMBO,CUSCO,PAUCARTAMBO,PAUCARTAMBO,I-4,-71.5911389,-13.32281387,07:00 AM – 07:00 PM,Dirección del EESS,935398443,592,592,592
GOBIERNO REGIONAL,2516,COLQUEPATA,CUSCO,PAUCARTAMBO,COLQUEPATA,I-2,-71.67321474,-13.36057995,07:00 AM – 07:00 PM,Dirección del EESS,935398444,593,593,593
GOBIERNO REGIONAL,2520,HUANCARANI,CUSCO,PAUCARTAMBO,HUANCARANI,I-4,-71.65084022,-13.5042252,07:00 AM – 07:00 PM,Dirección del EESS,935398445,594,594,594
GOBIERNO REGIONAL,2521,PILCOPATA,CUSCO,PAUCARTAMBO,KOSÑIPATA,I-3,-71.40422589,-12.90816848,07:00 AM – 07:00 PM,Dirección del EESS,935398446,595,595,595
GOBIERNO REGIONAL,2523,URCOS,CUSCO,QUISPICANCHI,URCOS,I-4,-71.62380047,-13.68518741,07:00 AM – 07:00 PM,Dirección del EESS,935398447,596,596,596
GOBIERNO REGIONAL,2528,CCATCCA,CUSCO,QUISPICANCHI,CCATCA,I-4,-71.56109667,-13.60698833,07:00 AM – 07:00 PM,Dirección del EESS,935398448,597,597,597
GOBIERNO REGIONAL,2530,CUSIPATA,CUSCO,QUISPICANCHI,CUSIPATA,I-3,-71.50183647,-13.90522018,07:00 AM – 07:00 PM,Dirección del EESS,935398449,598,598,598
GOBIERNO REGIONAL,2535,MARCAPATA,CUSCO,QUISPICANCHI,MARCAPATA,I-2,-70.97365724,-13.59198836,07:00 AM – 07:00 PM,Dirección del EESS,935398450,599,599,599
GOBIERNO REGIONAL,2536,OCONGATE,CUSCO,QUISPICANCHI,OCONGATE,I-4,-71.38697552,-13.62682086,07:00 AM – 07:00 PM,Dirección del EESS,935398451,600,600,600
GOBIERNO REGIONAL,2537,OROPESA,CUSCO,QUISPICANCHI,OROPESA,I-3,-71.76644672,-13.5948634,07:00 AM – 07:00 PM,Dirección del EESS,935398452,601,601,601
GOBIERNO REGIONAL,2538,QUIQUIJANA,CUSCO,QUISPICANCHI,QUIQUIJANA,I-4,-71.54147562,-13.82034063,07:00 AM – 07:00 PM,Dirección del EESS,935398453,602,602,602
GOBIERNO REGIONAL,2540,URUBAMBA,CUSCO,URUBAMBA,URUBAMBA,I-4,-72.11568811,-13.30926003,07:00 AM – 07:00 PM,Dirección del EESS,935398454,603,603,603
GOBIERNO REGIONAL,2543,CHINCHERO,CUSCO,URUBAMBA,CHINCHERO,I-4,-72.05221702,-13.3961655,07:00 AM – 07:00 PM,Dirección del EESS,935398455,604,604,604
GOBIERNO REGIONAL,2545,HUAYLLABAMBA,CUSCO,URUBAMBA,HUAYLLABAMBA,I-2,-72.06310121,-13.33636911,07:00 AM – 07:00 PM,Dirección del EESS,935398456,605,605,605
GOBIERNO REGIONAL,2552,ANTABAMBA,APURIMAC,ANTABAMBA,ANTABAMBA,I-4,-72.87842417,-14.36543154,07:00 AM – 07:00 PM,Dirección del EESS,935398457,606,606,606
GOBIERNO REGIONAL,2553,CURANCO,APURIMAC,ANTABAMBA,ANTABAMBA,I-1,-72.76779986,-14.41836101,07:00 AM – 07:00 PM,Dirección del EESS,935398458,607,607,607
GOBIERNO REGIONAL,2554,CHUÑOHUACHO,APURIMAC,ANTABAMBA,ANTABAMBA,I-2,-72.8192698,-14.40779139,07:00 AM – 07:00 PM,Dirección del EESS,935398459,608,608,608
GOBIERNO REGIONAL,2555,AYAHUAY,APURIMAC,ANTABAMBA,EL ORO,I-2,-73.05941132,-14.20742911,07:00 AM – 07:00 PM,Dirección del EESS,935398460,609,609,609
GOBIERNO REGIONAL,2556,HUAQUIRCA,APURIMAC,ANTABAMBA,HUAQUIRCA,I-2,-72.89402342,-14.33916704,07:00 AM – 07:00 PM,Dirección del EESS,935398461,610,610,610
GOBIERNO REGIONAL,2557,MATARA,APURIMAC,ANTABAMBA,HUAQUIRCA,I-1,-72.92172136,-14.35068552,07:00 AM – 07:00 PM,Dirección del EESS,935398462,611,611,611
GOBIERNO REGIONAL,2558,MOLLEBAMBA,APURIMAC,ANTABAMBA,JUAN ESPINOZA MEDRANO,I-3,-72.91549172,-14.42863956,07:00 AM – 07:00 PM,Dirección del EESS,935398463,612,612,612
GOBIERNO REGIONAL,2559,CALCAUSO,APURIMAC,ANTABAMBA,JUAN ESPINOZA MEDRANO,I-2,-72.69765,-13.54328,07:00 AM – 07:00 PM,Dirección del EESS,935398464,613,613,613
GOBIERNO REGIONAL,2561,PACHACONAS,APURIMAC,ANTABAMBA,PACHACONAS,I-3,-73.01679,-14.22223667,07:00 AM – 07:00 PM,Dirección del EESS,935398465,614,614,614
GOBIERNO REGIONAL,2562,HUANCARAY,APURIMAC,ANTABAMBA,PACHACONAS,I-1,-73.02815833,-14.25109667,07:00 AM – 07:00 PM,Dirección del EESS,935398466,615,615,615
GOBIERNO REGIONAL,2563,ANTILLA,APURIMAC,ANTABAMBA,SABAINO,I-1,-72.96632035,-14.32751065,07:00 AM – 07:00 PM,Dirección del EESS,935398467,616,616,616
GOBIERNO REGIONAL,2565,SORAYA,APURIMAC,AYMARAES,SORAYA,I-1,-73.31567807,-14.16527282,07:00 AM – 07:00 PM,Dirección del EESS,935398468,617,617,617
GOBIERNO REGIONAL,2566,CAPAYA,APURIMAC,AYMARAES,CAPAYA,I-1,-73.32051409,-14.11778934,07:00 AM – 07:00 PM,Dirección del EESS,935398469,618,618,618
GOBIERNO REGIONAL,2567,CHACAPUENTE,APURIMAC,AYMARAES,CAPAYA,I-2,-73.30321217,-14.14177579,07:00 AM – 07:00 PM,Dirección del EESS,935398470,619,619,619
GOBIERNO REGIONAL,2568,CARAYBAMBA,APURIMAC,AYMARAES,CARAYBAMBA,I-2,-73.16114637,-14.37723891,07:00 AM – 07:00 PM,Dirección del EESS,935398471,620,620,620
GOBIERNO REGIONAL,2569,CHALHUANCA,APURIMAC,AYMARAES,CHALHUANCA,I-4,-73.24451333,-14.294165,07:00 AM – 07:00 PM,Dirección del EESS,935398472,621,621,621
GOBIERNO REGIONAL,2570,SANTA ROSA,APURIMAC,AYMARAES,CHAPIMARCA,I-4,-73.171715,-13.99103833,07:00 AM – 07:00 PM,Dirección del EESS,935398473,622,622,622
GOBIERNO REGIONAL,2571,ANCOBAMBA,APURIMAC,AYMARAES,CHAPIMARCA,I-2,-73.09974833,-14.03400333,07:00 AM – 07:00 PM,Dirección del EESS,935398474,623,623,623
GOBIERNO REGIONAL,2572,CHAPIMARCA,APURIMAC,AYMARAES,CHAPIMARCA,I-2,-73.06456833,-13.97484333,07:00 AM – 07:00 PM,Dirección del EESS,935398475,624,624,624
GOBIERNO REGIONAL,2573,PAMPALLACTA,APURIMAC,AYMARAES,CHAPIMARCA,I-1,-73.09271667,-14.00303667,07:00 AM – 07:00 PM,Dirección del EESS,935398476,625,625,625
GOBIERNO REGIONAL,2574,COLCABAMBA,APURIMAC,AYMARAES,COLCABAMBA,I-2,-73.255005,-14.00563,07:00 AM – 07:00 PM,Dirección del EESS,935398477,626,626,626
GOBIERNO REGIONAL,2575,COTARUSE,APURIMAC,AYMARAES,COTARUSE,I-3,-73.20567333,-14.41730667,07:00 AM – 07:00 PM,Dirección del EESS,935398478,627,627,627
GOBIERNO REGIONAL,2578,IHUAYLLO,APURIMAC,AYMARAES,HUAYLLO,I-1,-73.26864713,-14.13580502,07:00 AM – 07:00 PM,Dirección del EESS,935398479,628,628,628
GOBIERNO REGIONAL,2580,PICHIHUA,APURIMAC,AYMARAES,JUSTO APU SAHUARAURA,I-2,-73.17367,-14.14848833,07:00 AM – 07:00 PM,Dirección del EESS,935398480,629,629,629
GOBIERNO REGIONAL,2581,LUCRE,APURIMAC,AYMARAES,LUCRE,I-3,-73.22620333,-13.94942667,07:00 AM – 07:00 PM,Dirección del EESS,935398481,630,630,630
GOBIERNO REGIONAL,2582,HUANCAPAMPA,APURIMAC,AYMARAES,POCOHUANCA,I-1,-73.07389,-14.20978167,07:00 AM – 07:00 PM,Dirección del EESS,935398482,631,631,631
GOBIERNO REGIONAL,2583,POCOHUANCA,APURIMAC,AYMARAES,POCOHUANCA,I-1,-73.09055167,-14.21994167,07:00 AM – 07:00 PM,Dirección del EESS,935398483,632,632,632
GOBIERNO REGIONAL,2584,TIAPARO,APURIMAC,AYMARAES,POCOHUANCA,I-1,-73.096815,-14.17908167,07:00 AM – 07:00 PM,Dirección del EESS,935398484,633,633,633
GOBIERNO REGIONAL,2585,SAÑAYCA,APURIMAC,AYMARAES,SAÑAYCA,I-2,-73.34813833,-14.20503667,07:00 AM – 07:00 PM,Dirección del EESS,935398485,634,634,634
GOBIERNO REGIONAL,2586,TAPAYRIHUA,APURIMAC,AYMARAES,TAPAIRIHUA,I-3,-73.141285,-14.14134667,07:00 AM – 07:00 PM,Dirección del EESS,935398486,635,635,635
